City_ID,City,Lat,Lng,Max Temp,Humidity,Cloudiness,Wind Speed,Country,Date
0,Saint George,37.1041,-113.5841,97.39,29,0,20.71,US,1659487398
1,Hofn,64.2539,-15.2082,48.69,73,49,11.41,IS,1659487664
2,Shimanovsk,52.0,127.7,76.48,59,0,5.99,RU,1659487665
3,Dolinsk,47.35,142.8,67.32,72,17,8.37,RU,1659487665
4,Sept-Îles,50.2001,-66.3821,68.0,91,75,5.75,CA,1659487657
5,Kampene,-3.6,26.6667,67.23,91,7,1.23,CD,1659487665
6,Hong Kong,22.2855,114.1577,84.38,84,100,11.01,HK,1659487566
7,Rikitea,-23.1203,-134.9692,72.34,73,40,20.58,PF,1659487666
8,Tasiilaq,65.6145,-37.6368,42.96,60,16,2.57,GL,1659487666
9,San Patricio,28.017,-97.5169,92.53,63,11,18.86,US,1659487666
10,Mount Gambier,-37.8333,140.7667,57.11,72,40,20.71,AU,1659487667
11,Mosquera,4.7059,-74.2302,55.49,76,40,5.75,CO,1659487667
12,Atuona,-9.8,-139.0333,77.27,73,12,13.15,PF,1659487667
13,Avera,33.194,-82.5271,85.55,54,20,5.44,US,1659487667
14,Sur,22.5667,59.5289,87.71,63,94,8.34,OM,1659487668
15,Kapaa,22.0752,-159.319,84.52,71,40,13.8,US,1659487655
16,Albany,42.6001,-73.9662,76.59,62,0,8.48,US,1659487506
17,Nizwá,22.9333,57.5333,87.84,55,8,1.21,OM,1659487668
18,Aklavik,68.2191,-135.0107,53.92,62,100,13.38,CA,1659487669
19,Vila Velha,-20.3297,-40.2925,73.35,88,40,9.22,BR,1659487669
20,Hermanus,-34.4187,19.2345,47.8,84,8,2.51,ZA,1659487669
21,Ziro,27.6333,93.8333,57.94,96,100,0.6,IN,1659487670
22,Dikson,73.5069,80.5464,43.09,89,100,13.96,RU,1659487670
23,Mahon,39.8885,4.2658,75.76,78,0,2.3,ES,1659487670
24,Tessalit,20.1986,1.0114,86.77,33,100,11.43,ML,1659487670
25,Ushuaia,-54.8,-68.3,35.26,93,75,2.3,AR,1659487671
26,Hobart,-42.8794,147.3294,59.25,65,40,14.97,AU,1659487554
27,Chui,-33.6971,-53.4616,53.85,95,88,6.96,UY,1659487671
28,Puerto Ayora,-0.7393,-90.3518,70.56,86,31,10.0,EC,1659487671
29,Flin Flon,54.7682,-101.865,54.32,95,100,6.78,CA,1659487672
30,Rathangan,53.2214,-6.995,62.83,81,89,13.78,IE,1659487672
31,Narsaq,60.9167,-46.05,52.02,79,7,1.92,GL,1659487672
32,Black River,18.0264,-77.8487,81.66,84,17,5.3,JM,1659487673
33,Stephenville Crossing,48.5,-58.4318,71.73,73,75,10.36,CA,1659487517
34,Qaanaaq,77.484,-69.3632,45.16,61,19,2.17,GL,1659487563
35,Avarua,-21.2078,-159.775,77.05,57,100,9.22,CK,1659487673
36,Cabo San Lucas,22.8909,-109.9124,90.61,55,0,11.5,MX,1659487673
37,Sechura,-5.5569,-80.8222,66.07,77,0,13.27,PE,1659487674
38,Punta Arenas,-53.15,-70.9167,33.91,93,20,4.61,CL,1659487674
39,Abhā,18.2164,42.5053,60.62,100,68,9.22,SA,1659487674
40,Swan Hill,-35.3378,143.5544,65.3,44,2,17.27,AU,1659487675
41,Cape Town,-33.9258,18.4232,58.37,87,75,6.91,ZA,1659487449
42,Longyearbyen,78.2186,15.6401,49.84,93,75,2.3,SJ,1659487675
43,Port Alfred,-33.5906,26.891,65.98,55,4,10.07,ZA,1659487573
44,Tautira,-17.7333,-149.15,77.07,75,16,21.47,PF,1659487675
45,Jamestown,42.097,-79.2353,71.19,68,0,6.91,US,1659487404
46,Bambous Virieux,-20.3428,57.7575,68.25,83,40,3.44,MU,1659487484
47,Forsytheganj,52.6333,29.7333,62.92,93,100,8.84,BY,1659487676
48,Bredasdorp,-34.5322,20.0403,49.28,87,14,4.23,ZA,1659487676
49,Tiksi,71.6872,128.8694,40.08,85,100,5.86,RU,1659487676
50,Kieta,-6.2167,155.6333,85.17,67,87,8.86,PG,1659487677
51,Dukat,62.55,155.55,58.95,71,100,7.72,RU,1659487677
52,Kartuzy,54.3342,18.1974,60.78,88,0,1.14,PL,1659487677
53,Udachny,66.4167,112.4,46.45,100,100,18.07,RU,1659487677
54,Sri Aman,1.2376,111.4621,75.25,100,20,0.0,MY,1659487678
55,Khanbari,27.3747,87.2039,73.22,92,100,0.78,NP,1659487678
56,Fairbanks,64.8378,-147.7164,68.22,76,75,14.97,US,1659487632
57,Pizarro,4.9533,-77.366,76.48,89,100,4.54,CO,1659487678
58,Lagoa,39.05,-27.9833,74.07,86,99,15.86,PT,1659487572
59,Mataura,-46.1927,168.8643,44.47,85,99,10.4,NZ,1659487679
60,Hithadhoo,-0.6,73.0833,80.35,76,100,11.88,MV,1659487484
61,Jinchang,38.4953,102.1739,73.18,65,8,5.61,CN,1659487645
62,Saint-Philippe,-21.3585,55.7679,65.79,81,50,9.31,RE,1659487575
63,Nikolskoye,59.7035,30.7861,58.8,91,68,4.85,RU,1659487679
64,Klaksvík,62.2266,-6.589,49.12,89,100,18.07,FO,1659487679
65,Cumberland,35.0502,-78.8664,93.7,47,0,8.05,US,1659487549
66,Arraial do Cabo,-22.9661,-42.0278,69.67,87,0,4.99,BR,1659487680
67,Busselton,-33.65,115.3333,54.09,67,100,31.21,AU,1659487680
68,São Filipe,14.8961,-24.4956,77.43,83,43,6.15,CV,1659487680
69,Ocampo,21.65,-101.5,65.55,60,100,7.96,MX,1659487681
70,Sucúa,-2.4667,-78.1667,67.87,98,68,2.04,EC,1659487681
71,Norman Wells,65.282,-126.8329,78.84,41,75,4.61,CA,1659487681
72,George Town,5.4112,100.3354,78.75,87,40,8.05,MY,1659487652
73,Nizhnevartovsk,60.9344,76.5531,57.22,82,0,4.47,RU,1659487682
74,Barrow,71.2906,-156.7887,46.42,71,0,14.97,US,1659487483
75,Samarai,-10.6167,150.6667,80.96,83,21,12.8,PG,1659487682
76,Fortuna,40.5982,-124.1573,73.92,73,20,13.8,US,1659487682
77,Hilo,19.7297,-155.09,81.25,81,100,8.05,US,1659487572
78,Dori,14.0354,-0.0345,82.72,64,100,8.7,BF,1659487683
79,Chifeng,42.2683,118.9636,84.2,59,0,6.13,CN,1659487683
80,Kaitangata,-46.2817,169.8464,50.88,74,82,15.32,NZ,1659487683
81,Mahabalipuram,12.6264,80.1722,82.45,79,100,7.52,IN,1659487684
82,Chokurdakh,70.6333,147.9167,55.99,48,100,7.58,RU,1659487684
83,Aldan,58.6031,125.3894,70.84,64,99,3.8,RU,1659487684
84,Fontem,5.4685,9.8818,63.39,94,100,1.14,CM,1659487685
85,Yellowknife,62.456,-114.3525,70.32,26,20,6.91,CA,1659487517
86,Flinders,-34.5833,150.8552,62.19,64,68,8.01,AU,1659487685
87,Champerico,14.3,-91.9167,90.14,77,6,7.14,GT,1659487685
88,Kargasok,59.0556,80.8572,55.11,74,0,8.39,RU,1659487686
89,Benguela,-12.5763,13.4055,64.13,79,72,2.04,AO,1659487686
90,Port Elizabeth,-33.918,25.5701,62.31,62,0,1.99,ZA,1659487686
91,Srednekolymsk,67.45,153.6833,62.22,84,100,11.68,RU,1659487687
92,Luwuk,-0.9516,122.7875,81.97,75,100,5.75,ID,1659487687
93,Sangar,63.9242,127.4739,66.07,82,100,1.34,RU,1659487687
94,Tuktoyaktuk,69.4541,-133.0374,51.8,93,75,13.8,CA,1659487687
95,Vaini,-21.2,-175.2,80.76,89,75,11.5,TO,1659487688
96,Faanui,-16.4833,-151.75,78.42,68,2,22.46,PF,1659487688
97,Krasnosel'kup,65.7,82.4667,51.96,64,18,13.4,RU,1659487689
98,Le Port,-20.9373,55.2919,66.25,74,3,3.15,RE,1659487689
99,Inhambane,-23.865,35.3833,62.87,70,25,4.18,MZ,1659487689
100,Churapcha,62.0025,132.4325,65.39,91,100,4.16,RU,1659487690
101,Port Blair,11.6667,92.75,77.04,88,100,8.05,IN,1659487690
102,Kolyvan',55.3053,82.7391,53.22,70,0,5.55,RU,1659487690
103,Khatanga,71.9667,102.5,45.97,67,100,5.3,RU,1659487690
104,Ribeira Grande,38.5167,-28.7,75.38,84,98,13.69,PT,1659487691
105,Severo-Kuril'sk,50.6789,156.125,56.39,76,13,6.76,RU,1659487691
106,Mayya,61.7333,130.2811,65.52,72,94,2.33,RU,1659487691
107,Grimshaw,56.1834,-117.6027,67.62,42,75,10.36,CA,1659487455
108,Wembley,-31.9333,115.8,60.1,62,40,24.16,AU,1659487567
109,Shellbrook,53.2168,-106.4011,61.83,96,100,12.12,CA,1659487692
110,Port Lincoln,-34.7333,135.8667,59.43,55,0,26.89,AU,1659487692
111,Aasiaat,68.7098,-52.8699,41.63,95,100,11.34,GL,1659487692
112,Portland,45.5234,-122.6762,90.95,39,20,6.91,US,1659487693
113,Wanning,18.8003,110.3967,85.98,70,32,4.68,CN,1659487693
114,Qaqortoq,60.7167,-46.0333,44.96,81,8,1.72,GL,1659487693
115,Katobu,-4.9408,122.5276,81.68,65,100,6.04,ID,1659487694
116,Bubaque,11.2833,-15.8333,79.52,81,100,9.53,GW,1659487694
117,Lüderitz,-26.6481,15.1594,53.51,80,0,4.85,NA,1659487694
118,Vestmannaeyjar,63.4427,-20.2734,48.85,71,39,22.17,IS,1659487694
119,Ladário,-19.0047,-57.6017,76.6,33,100,2.01,BR,1659487695
120,Muhos,64.808,25.9931,55.18,96,9,6.76,FI,1659487695
121,Soe,-9.8607,124.284,74.25,49,100,3.83,ID,1659487695
122,Departamento de Maldonado,-34.6667,-54.9167,55.22,96,99,4.45,UY,1659487696
123,Bluff,-46.6,168.3333,44.8,74,42,29.21,NZ,1659487696
124,New Norfolk,-42.7826,147.0587,58.91,73,83,4.0,AU,1659487696
125,Rome,43.2128,-75.4557,70.52,86,0,4.74,US,1659487697
126,Bosaso,11.2842,49.1816,89.98,39,0,17.16,SO,1659487697
127,Sunām,30.1333,75.8,83.46,77,93,2.84,IN,1659487697
128,Skibbereen,51.55,-9.2667,62.11,90,88,17.16,IE,1659487698
129,Aquidauana,-20.4711,-55.7872,76.46,33,51,3.22,BR,1659487698
130,Sitka,57.0531,-135.33,55.29,88,100,3.44,US,1659487698
131,Marsabit,2.3284,37.9899,63.72,58,87,14.43,KE,1659487699
132,Leh,34.1667,77.5833,58.44,56,22,5.5,IN,1659487699
133,Lebu,-37.6167,-73.65,46.98,81,1,15.59,CL,1659487673
134,Gouré,13.9835,10.2704,78.03,60,51,5.84,NE,1659487699
135,Pytalovo,57.0679,27.9138,55.76,94,94,4.54,RU,1659487700
136,Sertânia,-8.0736,-37.2644,66.6,89,95,8.08,BR,1659487450
137,Khandyga,62.6667,135.6,65.53,90,100,4.65,RU,1659487700
138,Nanga Eboko,4.6833,12.3667,65.91,98,98,3.65,CM,1659487700
139,Terrace,54.5163,-128.6035,66.11,68,75,18.41,CA,1659487700
140,Thompson,55.7435,-97.8558,57.36,94,75,3.44,CA,1659487701
141,Torbay,47.6666,-52.7314,66.97,74,75,10.36,CA,1659487655
142,Mocuba,-16.8392,36.9856,61.54,98,8,3.49,MZ,1659487701
143,Solnechnyy,50.7214,136.6319,63.79,96,100,2.48,RU,1659487701
144,Butaritari,3.0707,172.7902,82.02,75,20,15.99,KI,1659487702
145,Sitia,35.2,26.0986,80.98,72,0,22.91,GR,1659487702
146,Punta Alta,-38.8759,-62.0736,47.17,100,75,5.75,AR,1659487702
147,Provideniya,64.3833,-173.3,60.91,55,0,15.99,RU,1659487702
148,Guiren,33.6697,118.1889,88.02,72,4,7.45,CN,1659487703
149,Carnarvon,-24.8667,113.6333,68.58,58,56,19.39,AU,1659487649
150,Ikom,5.9667,8.7063,71.56,95,100,2.51,NG,1659487703
151,Yumen,40.2833,97.2,73.76,37,12,13.94,CN,1659487703
152,Río Cuarto,-33.1307,-64.3499,56.97,58,0,5.75,AR,1659487704
153,Fort Nelson,58.8053,-122.7002,63.99,63,75,13.8,CA,1659487704
154,Auki,-8.7676,160.7034,86.04,63,14,4.72,SB,1659487704
155,Kumul,42.8,93.45,76.01,54,5,7.14,CN,1659487619
156,Upernavik,72.7868,-56.1549,44.65,81,73,1.81,GL,1659487705
157,São João da Barra,-21.6403,-41.0511,71.08,90,1,7.47,BR,1659487705
158,Honningsvåg,70.9821,25.9704,51.55,93,100,8.05,NO,1659487705
159,Castro,-24.7911,-50.0119,58.96,66,0,3.51,BR,1659487706
160,Brigham City,41.5102,-112.0155,85.17,56,100,6.96,US,1659487706
161,Gizo Government Station,-8.103,156.8419,84.49,70,15,10.2,SB,1659487706
162,Sakakah,29.9697,40.2064,90.97,18,3,11.81,SA,1659487706
163,Santa Isabel Rio Negro,-0.4139,-65.0192,74.19,93,65,2.37,BR,1659487707
164,Harper,4.375,-7.7169,75.15,75,100,6.96,LR,1659487707
165,Orlik,52.5178,99.825,60.78,68,95,0.96,RU,1659487707
166,Lompoc,34.6391,-120.4579,86.14,75,0,14.97,US,1659487707
167,Bogorodskoye,56.55,37.8833,59.85,72,100,2.39,RU,1659487708
168,El Alto,-4.2714,-81.2147,65.86,87,29,13.87,PE,1659487708
169,Dingle,10.9995,122.6711,83.95,78,100,6.42,PH,1659487708
170,Bedford,52.1346,-0.4663,69.67,82,43,12.28,GB,1659487709
171,Ambon City,-3.6954,128.1814,82.54,78,40,2.3,ID,1659487594
172,Cidreira,-30.1811,-50.2056,60.51,87,100,10.04,BR,1659487709
173,Ostrovnoy,68.0531,39.5131,54.07,96,100,5.17,RU,1659487709
174,Pangkalanbuun,-2.6833,111.6167,78.31,88,51,3.06,ID,1659487710
175,Cedar City,37.6775,-113.0619,74.37,60,0,11.5,US,1659487710
176,Tandil,-37.3217,-59.1332,50.68,92,15,4.14,AR,1659487710
177,Tabou,4.423,-7.3528,75.02,76,100,6.46,CI,1659487711
178,Ulladulla,-35.35,150.4667,67.24,55,12,8.61,AU,1659487711
179,El Sauzal de Rodríguez,31.9,-116.6833,76.51,63,23,9.53,MX,1659487711
180,Barcelos,41.5388,-8.6151,67.91,93,7,1.83,PT,1659487665
181,Verkhnechusovskiye Gorodki,58.1671,57.1086,52.75,88,5,3.27,RU,1659487712
182,Minudasht,37.2289,55.3747,74.77,73,0,0.0,IR,1659487712
183,Hirara,24.8,125.2833,85.86,84,40,10.36,JP,1659487712
184,Vanimo,-2.6741,141.3028,84.79,70,100,10.11,PG,1659487713
185,Timaru,-44.4,171.25,62.08,21,2,11.01,NZ,1659487713
186,Hambantota,6.1241,81.1185,77.34,88,75,13.8,LK,1659487713
187,La Rioja,42.25,-2.5,67.78,36,15,5.37,ES,1659487713
188,Dodoma,-6.1722,35.7395,59.38,69,3,4.0,TZ,1659487714
189,Olafsvik,64.8945,-23.7142,47.66,68,69,9.35,IS,1659487564
190,Monroe,43.1501,-77.6831,73.42,72,20,9.22,US,1659487500
191,Igurubi,-4.0,33.7,68.18,54,0,5.61,TZ,1659487714
192,Basco,20.4487,121.9702,82.42,77,100,14.61,PH,1659487714
193,Codrington,-38.2667,141.9667,57.96,70,35,21.5,AU,1659487659
194,Quatre Cocos,-20.2078,57.7625,68.11,71,25,9.26,MU,1659487715
195,Mahébourg,-20.4081,57.7,68.29,83,40,3.44,MU,1659487715
196,Pisco,-13.7,-76.2167,60.85,82,20,12.66,PE,1659487483
197,Pangnirtung,66.1451,-65.7125,47.97,78,66,1.52,CA,1659487715
198,Tual,-5.6667,132.75,79.59,85,100,12.48,ID,1659487716
199,Makkah al Mukarramah,21.4267,39.8261,83.97,64,58,6.35,SA,1659487553
200,Kavieng,-2.5744,150.7967,84.34,72,32,16.4,PG,1659487716
201,Kruisfontein,-34.0033,24.7314,57.16,56,4,5.99,ZA,1659487711
202,Ponta do Sol,32.6667,-17.1,73.0,82,11,5.32,PT,1659487716
203,Galle,6.0367,80.217,77.85,84,100,21.41,LK,1659487717
204,Mar del Plata,-38.0023,-57.5575,55.09,97,100,4.61,AR,1659487717
205,Les Cayes,18.2,-73.75,77.61,82,12,5.59,HT,1659487717
206,Moose Factory,51.2585,-80.6094,68.0,72,100,3.44,CA,1659487717
207,Constitución,-35.3333,-72.4167,48.18,76,0,5.53,CL,1659487718
208,Havre-St-Pierre,50.2334,-63.5986,62.96,100,75,10.36,CA,1659487718
209,Srīsailain,16.0833,78.8667,75.45,89,100,2.86,IN,1659487718
210,Bestöbe,52.4994,73.0975,62.35,67,68,9.33,KZ,1659487719
211,Lata,40.1629,-8.3327,61.05,94,32,0.49,PT,1659487719
212,Ilulissat,69.2167,-51.1,50.02,81,100,0.0,GL,1659487719
213,Acarí,-15.4311,-74.6158,63.39,74,8,3.06,PE,1659487719
214,Marau,-28.4492,-52.2,59.4,94,4,3.98,BR,1659487720
215,Geraldton,-28.7667,114.6,61.21,63,100,19.57,AU,1659487720
216,Luganville,-15.5333,167.1667,83.61,73,15,7.38,VU,1659487720
217,Ketchikan,55.3422,-131.6461,63.07,67,100,4.61,US,1659487721
218,Haines Junction,60.7522,-137.5108,57.15,72,100,4.61,CA,1659487721
219,Airai,-8.9266,125.4092,70.38,36,84,2.59,TL,1659487721
220,Heihe,50.2441,127.4902,75.78,50,0,1.14,CN,1659487722
221,Río Gallegos,-51.6226,-69.2181,35.65,87,0,3.44,AR,1659487722
222,Hays,30.0502,-98.0336,98.19,35,0,5.01,US,1659487722
223,East London,-33.0153,27.9116,65.55,58,70,5.14,ZA,1659487722
224,Kemijärvi,66.7131,27.4306,50.45,98,42,7.07,FI,1659487723
225,Talca,-35.4333,-71.6667,43.84,84,0,3.91,CL,1659487723
226,Oranjemund,-28.55,16.4333,52.18,92,0,4.79,NA,1659487723
227,Los Llanos de Aridane,28.6585,-17.9182,67.75,83,20,18.41,ES,1659487724
228,Halifax,44.6453,-63.5724,71.49,98,100,4.61,CA,1659487605
229,Ivrea,45.4672,7.8762,77.5,69,100,4.72,IT,1659487724
230,Talnakh,69.4865,88.3972,47.21,58,10,3.58,RU,1659487724
231,Thunder Bay,48.4001,-89.3168,62.51,77,100,6.91,CA,1659487460
232,Black Forest,39.0131,-104.7008,81.61,38,75,11.01,US,1659487725
233,Ancud,-41.8697,-73.8203,45.23,89,100,3.98,CL,1659487707
234,Bakchar,57.0186,82.0711,54.32,71,52,4.45,RU,1659487725
235,Pevek,69.7008,170.3133,39.56,100,100,3.69,RU,1659487725
236,Ozinki,51.1786,49.6769,65.41,66,0,6.8,RU,1659487726
237,San Pedro de Macorís,18.4616,-69.2972,81.21,84,5,13.27,DO,1659487533
238,Saskylakh,71.9167,114.0833,45.37,70,100,11.21,RU,1659487726
239,Husavik,66.0449,-17.3389,45.16,98,100,18.68,IS,1659487726
240,Saint Paul Harbor,57.79,-152.4072,67.51,45,0,26.46,US,1659487727
241,Sault Ste. Marie,46.5168,-84.3333,71.89,57,0,6.91,CA,1659487595
242,Saldanha,-33.0117,17.9442,53.65,91,7,7.61,ZA,1659487576
243,Hay River,60.8156,-115.7999,66.18,48,40,10.36,CA,1659487727
244,Ahipara,-35.1667,173.1667,61.95,70,100,2.98,NZ,1659487727
245,Buraidah,26.326,43.975,95.45,42,80,6.64,SA,1659487728
246,Farafangana,-22.8167,47.8333,66.27,82,100,6.67,MG,1659487728
247,Nanortalik,60.1432,-45.2371,45.32,81,13,8.37,GL,1659487728
248,Dangtu,31.5723,118.4928,89.65,69,12,5.82,CN,1659487728
249,Ramsar,36.9226,50.6426,76.44,88,20,2.3,IR,1659487729
250,Esperance,-33.8667,121.9,49.84,61,40,31.32,AU,1659487729
251,Bethel,41.3712,-73.414,81.75,88,20,4.61,US,1659487434
252,Makakilo City,21.3469,-158.0858,84.56,50,75,13.8,US,1659487730
253,Eureka,40.8021,-124.1637,74.19,79,31,3.0,US,1659487730
254,San Fernando del Valle de Catamarca,-28.4696,-65.7852,65.59,51,88,3.04,AR,1659487730
255,Yarim,14.298,44.3779,57.45,77,87,1.74,YE,1659487730
256,Balabac,7.9868,117.0645,85.21,69,91,10.74,PH,1659487731
257,Alice Springs,-23.7,133.8833,76.55,20,71,17.27,AU,1659487731
258,Coquimbo,-29.9533,-71.3436,53.33,76,100,1.14,CL,1659487731
259,Aykhal,66.0,111.5,42.8,97,100,19.48,RU,1659487731
260,Richards Bay,-28.783,32.0377,62.89,79,4,12.46,ZA,1659487732
261,Estelle,29.8458,-90.1067,82.99,77,75,8.05,US,1659487732
262,Gaoual,11.75,-13.2,74.01,95,100,3.94,GN,1659487732
263,La Ronge,55.1001,-105.2842,61.05,63,75,10.36,CA,1659487514
264,Vratnica,42.1433,21.1169,58.8,62,0,3.6,MK,1659487733
265,Cabedelo,-6.9811,-34.8339,75.87,85,12,4.61,BR,1659487733
266,Roebourne,-20.7833,117.1333,68.16,53,0,14.56,AU,1659487733
267,Porto-Vecchio,41.591,9.2795,76.53,88,0,2.3,FR,1659487733
268,Mossamedes,-15.1961,12.1522,58.53,78,41,4.36,AO,1659487734
269,Grand-Santi,4.25,-54.3833,72.72,99,100,2.68,GF,1659487734
270,Aljezur,37.3191,-8.8033,65.64,94,61,11.77,PT,1659487734
271,Tuatapere,-46.1333,167.6833,51.03,73,50,12.73,NZ,1659487572
272,Lebedinyy,58.5167,125.5167,69.19,65,100,4.36,RU,1659487735
273,Marrakesh,31.6315,-8.0083,95.07,26,40,4.61,MA,1659487735
274,Colares,38.7992,-9.4469,69.3,72,85,21.99,PT,1659487735
275,Māyakonda,14.2833,76.0833,70.9,95,100,3.27,IN,1659487736
276,Neryungri,56.6709,124.6491,70.09,68,4,4.38,RU,1659487736
277,Progreso,21.2833,-89.6667,86.11,86,92,15.52,MX,1659487736
278,Shiyan,32.6475,110.7781,82.96,77,3,1.41,CN,1659487736
279,Islāmpur,26.2667,88.2,80.67,84,100,2.37,IN,1659487737
280,Kushima,31.4583,131.2333,86.88,71,100,3.47,JP,1659487737
281,Kalispell,48.1958,-114.3129,86.04,24,0,17.0,US,1659487737
282,Alta Floresta,-9.8756,-56.0861,75.7,36,100,4.45,BR,1659487738
283,Rengo,-34.4167,-70.8667,47.91,81,0,3.2,CL,1659487462
284,New Iberia,30.0035,-91.8187,80.6,89,0,3.44,US,1659487738
285,Sharjah city,25.3573,55.4033,98.58,46,0,3.44,AE,1659487510
286,Bengkulu,-3.8004,102.2655,76.15,88,100,3.62,ID,1659487738
287,Egvekinot,66.3167,-179.1667,57.13,54,26,13.06,RU,1659487738
288,Olinda,-8.0089,-34.8553,74.93,88,75,4.61,BR,1659487589
289,Zykovo,55.9519,93.1461,57.99,67,92,3.11,RU,1659487739
290,Clyde River,70.4692,-68.5914,39.43,93,100,2.3,CA,1659487739
291,Seoul,37.5683,126.9778,80.17,94,100,8.05,KR,1659487503
292,Bilma,18.6853,12.9164,88.36,41,5,7.52,NE,1659487739
293,Vilhena,-12.7406,-60.1458,74.73,43,90,3.15,BR,1659487740
294,Marsh Harbour,26.5412,-77.0636,82.74,65,0,10.27,BS,1659487690
295,Willmar,45.1219,-95.0433,89.62,66,0,4.61,US,1659487740
296,Shiraz,29.6036,52.5388,72.84,53,0,0.0,IR,1659487740
297,Dingli,35.8614,14.3822,75.81,64,0,5.7,MT,1659487740
298,Henties Bay,-22.116,14.2845,53.13,76,28,6.6,NA,1659487741
299,Atasū,48.6814,71.6433,65.08,72,99,11.88,KZ,1659487741
300,Pericos,25.05,-107.7,90.86,66,3,5.06,MX,1659487741
301,Solhan,38.9634,41.0293,70.65,27,0,4.0,TR,1659487742
302,Tynda,55.1667,124.7167,69.28,79,40,3.15,RU,1659487742
303,La Paz,-16.5,-68.15,46.38,61,20,8.05,BO,1659487701
304,Kinchil,20.9167,-89.95,86.05,76,37,10.33,MX,1659487742
305,Cooma,-36.2333,149.1333,55.17,66,40,26.46,AU,1659487743
306,Kirakira,-10.4544,161.9205,84.51,71,95,11.92,SB,1659487743
307,Iqaluit,63.7506,-68.5145,46.13,74,75,9.22,CA,1659487743
308,Northam,51.0333,-4.2167,66.38,98,100,16.84,GB,1659487744
309,Madrid,40.4165,-3.7026,84.65,42,40,5.99,ES,1659487537
310,Abalak,58.1286,68.5944,54.01,76,35,3.78,RU,1659487744
311,Belmonte,-15.8631,-38.8828,70.77,83,0,5.57,BR,1659487744
312,Inuvik,68.3499,-133.7218,60.01,69,75,11.5,CA,1659487745
313,Sárvár,47.2539,16.9352,58.86,64,11,4.36,HU,1659487745
314,Cherskiy,68.75,161.3,49.73,93,100,8.66,RU,1659487745
315,Laguna,38.421,-121.4238,104.09,30,0,11.5,US,1659487745
316,Garissa,-0.4536,39.6401,72.03,77,8,12.77,KE,1659487746
317,Port Augusta,-32.5,137.7667,68.56,40,0,18.1,AU,1659487746
318,Vadsø,70.0744,29.7487,58.08,87,20,2.3,NO,1659487746
319,Dom Pedrito,-30.9828,-54.6731,60.15,94,96,7.74,BR,1659487747
320,Soyo,-6.1349,12.3689,68.59,89,53,10.92,AO,1659487747
321,Mishan,45.55,131.8833,84.06,66,21,5.03,CN,1659487747
322,Marabu,4.4148,114.0089,78.94,94,40,4.61,MY,1659487748
323,Gigmoto,13.7796,124.39,83.37,79,100,3.4,PH,1659487748
324,Kurumkan,54.3,110.3,67.62,78,100,6.2,RU,1659487748
325,Pangoa,-12.1167,-73.0,66.97,99,23,2.57,PE,1659487748
326,Mīzan Teferī,6.9833,35.5833,56.3,91,10,2.19,ET,1659487749
327,Karratha,-20.7377,116.8463,67.98,55,0,13.09,AU,1659487749
328,Xichang,27.8964,102.2634,68.9,90,76,2.26,CN,1659487749
329,Rūdbār,30.15,62.6,84.33,26,0,18.41,AF,1659487750
330,Grindavik,63.8424,-22.4338,49.95,76,75,17.27,IS,1659487664
331,Caravelas,-17.7125,-39.2481,69.35,85,0,4.81,BR,1659487750
332,Simbahan,6.3032,120.5836,82.6,71,92,3.89,PH,1659487750
333,Takoradze,4.8845,-1.7554,72.18,80,3,7.45,GH,1659487750
334,Puerto Ayacucho,5.6639,-67.6236,75.72,90,100,2.8,VE,1659487751
335,Barre,44.197,-72.5021,71.55,68,21,4.03,US,1659487751
336,Manyana,-23.4,21.7167,48.97,22,0,3.6,BW,1659487751
337,Lishui,28.4604,119.9103,87.49,70,19,2.62,CN,1659487752
338,Agüimes,27.9054,-15.4461,75.67,83,20,28.77,ES,1659487752
339,Gamba,-2.65,10.0,69.13,96,91,5.93,GA,1659487752
340,Mikuni,36.2171,136.1519,87.71,68,21,7.09,JP,1659487753
341,Hasaki,35.7333,140.8333,91.8,72,100,7.76,JP,1659487574
342,Uvinza,-5.1036,30.3911,65.68,67,0,0.69,TZ,1659487753
343,Kamaishi,39.2667,141.8833,72.95,99,100,9.98,JP,1659487753
344,Cockburn Town,21.4612,-71.1419,82.36,74,40,12.66,TC,1659487754
345,Barra de Tecoanapa,16.5167,-98.75,82.98,78,32,4.61,MX,1659487754
346,Sakaiminato,35.55,133.2333,89.58,62,40,18.41,JP,1659487571
347,Aljustrel,37.8776,-8.1652,64.27,87,1,5.03,PT,1659487754
348,Jiuquan,39.7432,98.5174,73.83,48,17,10.58,CN,1659487755
349,Bukama,-9.2,25.85,70.77,36,0,2.77,CD,1659487755
350,Bang Khla,13.7214,101.2081,85.08,90,100,3.44,TH,1659487755
351,Winslow,35.0242,-110.6974,96.98,17,40,16.11,US,1659487600
352,Ola,59.5833,151.2833,61.14,89,85,11.07,RU,1659487756
353,Katsuura,35.1333,140.3,86.23,77,100,12.15,JP,1659487756
354,Bayanday,53.0661,105.5139,64.13,75,100,3.38,RU,1659487756
355,Bani Walid,31.7566,13.9942,75.15,70,0,6.4,LY,1659487756
356,Hualmay,-11.0964,-77.6139,61.93,83,28,12.93,PE,1659487757
357,Tucupita,9.0622,-62.051,73.9,99,100,3.04,VE,1659487757
358,Maple Creek,49.9168,-109.4848,80.65,24,1,13.8,CA,1659487513
359,Kamenka,51.3223,42.7678,64.56,59,99,10.42,RU,1659487757
360,Erdenet,49.0333,104.0833,58.35,94,100,1.61,MN,1659487758
361,Awjilah,29.1081,21.2869,78.73,63,0,13.85,LY,1659487758
362,Durusu,41.3053,28.6767,73.58,76,0,9.6,TR,1659487758
363,Beaverlodge,55.2166,-119.4361,65.55,61,100,8.37,CA,1659487759
364,Victor Harbor,-35.5667,138.6167,60.01,71,0,5.99,AU,1659487759
365,Bay-Khaak,51.1667,94.5,61.47,74,69,3.42,RU,1659487759
366,Villarrica,-25.75,-56.4333,70.74,53,0,5.53,PY,1659487760
367,Pedernales,18.0384,-71.744,81.9,74,44,3.42,DO,1659487760
368,Bundaberg,-24.85,152.35,73.22,75,64,1.01,AU,1659487760
369,Porto Santo,33.072,-16.3415,70.18,78,75,12.66,PT,1659487760
370,Sioux Lookout,50.1001,-91.917,75.27,60,75,17.27,CA,1659487761
371,Plátanos,37.6667,21.6167,78.57,70,0,4.18,GR,1659487761
372,Adana Province,36.985,35.2881,81.12,89,40,2.3,TR,1659487761
373,Coahuayana Viejo,18.7333,-103.6833,83.44,80,88,2.82,MX,1659487762
374,Puerto Madero,14.7208,-92.4215,83.55,75,12,6.78,MX,1659487762
375,Turukhansk,65.8167,87.9833,56.59,46,5,8.79,RU,1659487655
376,Baraboo,43.4711,-89.7443,83.61,63,0,13.8,US,1659487762
377,Kuala Lipis,4.1842,102.0468,75.76,95,100,0.94,MY,1659487763
378,Makaha,21.4694,-158.2175,85.95,54,75,10.36,US,1659487763
379,Rawson,-43.3002,-65.1023,43.68,60,0,8.03,AR,1659487763
380,Oranjestad,12.524,-70.027,82.35,83,20,14.97,AW,1659487764
381,Namatanai,-3.6667,152.4333,84.36,67,20,9.4,PG,1659487725
382,Chernyshevskiy,63.0128,112.4714,67.66,86,99,9.33,RU,1659487764
383,Sarkand,45.41,79.9186,72.75,39,98,6.06,KZ,1659487764
384,Kutum,14.2,24.6667,71.85,65,100,5.44,SD,1659487765
385,Dunedin,-45.8742,170.5036,54.3,62,73,16.04,NZ,1659487765
386,Faya,18.3851,42.4509,60.91,73,65,1.61,SA,1659487765
387,Meulaboh,4.1363,96.1285,76.46,85,100,2.33,ID,1659487765
388,Poindimié,-20.9333,165.3333,80.22,72,88,2.91,NC,1659487766
389,Altagracia de Orituco,9.8601,-66.3814,71.42,92,98,4.85,VE,1659487766
390,Båtsfjord,70.6345,29.7185,53.38,93,75,9.22,NO,1659487766
391,Verāval,20.9,70.3667,81.45,83,100,8.61,IN,1659487767
392,Asău,46.4333,26.4,56.32,69,0,5.03,RO,1659487767
393,Ban Nahin,18.2418,104.2122,80.35,84,99,0.58,LA,1659487767
394,Rāmpur,28.8167,79.0333,78.91,89,62,12.19,IN,1659487767
395,Whitehorse,60.7161,-135.0538,63.37,51,75,6.91,CA,1659487768
396,Roald,62.5833,6.1333,60.1,88,75,13.8,NO,1659487768
397,Havelock,34.8791,-76.9013,85.98,87,0,10.36,US,1659487769
398,Lavrentiya,65.5833,-171.0,58.19,55,28,11.41,RU,1659487769
399,Payo,-3.7508,103.6372,73.42,97,100,0.81,ID,1659487769
400,Smolenka,52.1352,113.4974,68.07,94,20,4.47,RU,1659487769
401,Paracuru,-3.41,-39.0306,79.11,81,27,10.4,BR,1659487770
402,Hervey Bay,-25.2986,152.8535,68.02,85,100,3.0,AU,1659487770
403,Huarmey,-10.0681,-78.1522,62.89,84,51,10.76,PE,1659487770
404,Leningradskiy,69.3833,178.4167,51.46,65,100,8.97,RU,1659487771
405,Cayenne,4.9333,-52.3333,83.08,1,75,1.99,GF,1659487771
406,Aloleng,16.1307,119.7824,82.54,76,100,5.03,PH,1659487771
407,Bagotville,-28.9833,153.4167,67.86,78,100,4.85,AU,1659487771
408,Rakitnoye,50.8389,35.8515,62.33,96,100,10.98,RU,1659487772
409,Mezen',65.8522,44.24,60.19,83,100,11.79,RU,1659487772
410,Nome,64.5011,-165.4064,69.17,67,0,20.71,US,1659487772
411,Port Hardy,50.6996,-127.4199,59.18,88,100,10.36,CA,1659487773
412,Rocha,-34.4833,-54.3333,52.3,97,86,5.82,UY,1659487773
413,Mareeba,-17.0,145.4333,77.43,69,50,6.11,AU,1659487773
414,Touros,-5.1989,-35.4608,75.2,88,8,7.9,BR,1659487774
415,Boguchar,49.9358,40.545,66.31,85,100,11.27,RU,1659487774
416,Ukiah,39.1502,-123.2078,97.43,34,0,9.22,US,1659487774
417,Coyhaique,-45.5752,-72.0662,38.01,81,75,8.05,CL,1659487775
418,Pokhara,28.2333,83.9833,72.3,92,100,0.85,NP,1659487775
419,Maniitsoq,65.4167,-52.9,42.84,94,77,5.86,GL,1659487775
420,Merauke,-8.4667,140.3333,82.24,75,78,10.45,ID,1659487775
421,General Cepeda,25.3833,-101.45,82.08,37,100,6.44,MX,1659487519
422,Guerrero Negro,27.9769,-114.0611,76.03,64,55,17.74,MX,1659487771
423,Aksarka,66.5606,67.7975,59.38,67,36,7.56,RU,1659487776
424,Porto-Novo,6.4965,2.6036,73.89,80,100,7.61,BJ,1659487776
425,Moanda,-1.5575,13.2178,74.48,66,54,4.99,GA,1659487776
426,Atar,20.5169,-13.0499,86.59,44,0,12.33,MR,1659487777
427,Karasjok,69.4719,25.5112,52.54,92,100,4.63,NO,1659487777
428,Oyotún,-6.8519,-79.3036,71.26,71,11,2.08,PE,1659487777
429,Opuwo,-18.0607,13.84,46.31,17,99,0.89,NA,1659487778
430,Fare,-16.7,-151.0167,78.26,69,31,23.13,PF,1659487568
431,Oyón,-10.6681,-76.7731,46.72,82,42,1.25,PE,1659487778
432,Humboldt,40.6665,-123.9178,65.12,56,6,5.5,US,1659487778
433,Caucayá,-0.1934,-74.7819,71.67,98,93,2.26,CO,1659487779
434,Okha,53.5739,142.9478,56.68,94,100,17.58,RU,1659487779
435,Russell,32.3502,-85.1999,78.4,78,85,3.44,US,1659487661
436,Lingyuan,41.24,119.4011,85.44,63,100,8.86,CN,1659487779
437,Kahului,20.8947,-156.47,84.22,64,75,19.57,US,1659487780
438,Santarém,-2.4431,-54.7083,78.93,94,20,3.44,BR,1659487629
439,Muyezerskiy,63.9333,31.65,50.49,98,6,5.82,RU,1659487781
440,Yangi Marg`ilon,40.4272,71.7189,70.52,60,8,2.3,UZ,1659487781
441,Provincia di Campobasso,41.6333,14.5833,72.45,55,10,2.91,IT,1659487782
442,San Quintín,30.4833,-115.95,73.96,71,100,13.73,MX,1659487574
443,Guangyuan,32.442,105.823,80.56,81,70,0.92,CN,1659487782
444,Pimenta Bueno,-11.6725,-61.1936,77.97,43,44,1.92,BR,1659487782
445,Riverton,40.5219,-111.9391,86.56,44,0,11.99,US,1659487554
446,Bathsheba,13.2167,-59.5167,83.01,85,40,18.41,BB,1659487783
447,Massena,44.9281,-74.8919,70.72,60,0,8.05,US,1659487701
448,Malanje,-9.5402,16.341,61.39,72,33,7.76,AO,1659487783
449,Lillooet,50.6856,-121.942,84.72,34,35,5.46,CA,1659487513
450,Yaan,7.3833,8.5667,71.28,93,100,4.0,NG,1659487783
451,Poum,-20.2333,164.0167,75.04,87,5,16.98,NC,1659487783
452,Dzaoudzi,-12.7887,45.2699,73.29,88,0,3.44,YT,1659487784
453,Paulo Afonso,-9.4061,-38.2147,69.66,83,84,9.48,BR,1659487784
454,Chara,56.9064,118.2631,72.93,55,78,1.79,RU,1659487784
455,Prado,-17.3411,-39.2208,70.45,82,0,5.44,BR,1659487785
456,Tazmalt,36.3868,4.3989,72.52,53,26,2.71,DZ,1659487785
457,Nago,26.5881,127.9761,86.85,71,9,1.74,JP,1659487785
458,Nemuro,43.3236,145.575,60.8,93,100,11.7,JP,1659487723
459,Rundu,-17.9333,19.7667,54.99,30,5,4.09,NA,1659487786
460,Hokitika,-42.7167,170.9667,54.34,75,0,7.78,NZ,1659487786
461,Mangan,27.5167,88.5333,77.7,90,100,1.03,IN,1659487508
462,Naze,28.3667,129.4833,85.12,84,15,9.86,JP,1659487786
463,Neuquén,-38.9516,-68.0591,40.89,65,0,0.0,AR,1659487787
464,Xining,36.6167,101.7667,69.12,67,12,1.77,CN,1659487724
465,Gawler,-34.6,138.7333,63.25,68,0,16.11,AU,1659487512
466,Kensington,-33.9167,151.2167,64.76,61,0,18.41,AU,1659487787
467,Atambua,-9.1061,124.8925,79.56,49,56,1.5,ID,1659487762
468,Mīnāb,27.1467,57.0801,93.47,52,99,4.32,IR,1659487787
469,Kilindoni,-7.9139,39.6668,75.07,78,1,12.86,TZ,1659487788
470,Tessaoua,13.7574,7.9874,79.23,63,100,6.2,NE,1659487788
471,Jimeta,9.2833,12.4667,70.32,93,100,2.91,NG,1659487788
472,Yaviza,8.1537,-77.6931,74.79,98,100,0.36,PA,1659487789
473,San Juan,-31.5375,-68.5364,55.67,45,0,9.35,AR,1659487700
474,Buinsk,54.95,48.2833,60.49,85,11,3.74,RU,1659487789
475,Gorontalo,0.5412,123.0595,82.36,79,62,2.91,ID,1659487789
476,Beyneu,45.3167,55.2,80.55,31,5,6.78,KZ,1659487789
477,Buta,2.7858,24.73,67.55,84,100,1.36,CD,1659487790
478,Zonguldak,41.25,31.8333,60.15,94,54,3.0,TR,1659487790
479,Ingham,42.6,-84.3833,76.77,68,0,0.0,US,1659487790
480,Ust'-Omchug,61.15,149.6333,60.71,77,100,5.99,RU,1659487791
481,Semarang,-6.9932,110.4203,82.33,69,40,8.05,ID,1659487605
482,Nishihara,26.1842,127.7558,86.05,82,40,5.75,JP,1659487791
483,Uman',48.7484,30.2218,61.3,94,97,12.44,UA,1659487791
484,Dongsheng,39.8161,109.9776,77.18,56,91,12.97,CN,1659487791
485,Shubarshi,48.5872,57.1869,69.71,58,16,7.0,KZ,1659487792
486,Gorom-Gorom,14.4439,-0.2361,84.72,57,100,5.37,BF,1659487792
487,Hegang,47.4,130.3667,84.16,54,94,3.38,CN,1659487792
488,Zyryanka,65.75,150.85,61.72,91,100,13.29,RU,1659487793
489,Antofagasta,-23.65,-70.4,58.28,86,49,3.33,CL,1659487709
490,Chālūs,36.655,51.4204,78.26,83,40,2.3,IR,1659487793
491,Marand,38.4329,45.7749,74.75,51,0,4.36,IR,1659487793
492,Manta,-0.95,-80.7333,73.18,78,75,10.36,EC,1659487576
493,Vanavara,60.34,102.2797,56.89,94,100,5.32,RU,1659487794
494,Walvis Bay,-22.9575,14.5053,49.08,87,4,3.44,NA,1659487794
495,General Pico,-35.6566,-63.7568,54.28,64,3,6.89,AR,1659487699
496,Kanniyākumāri,8.0833,77.5667,77.43,88,100,26.82,IN,1659487794
497,Carballo,43.213,-8.691,69.01,93,97,8.99,ES,1659487584
498,Alyangula,-13.8483,136.4192,80.01,71,92,10.54,AU,1659487795
499,Upata,8.0086,-62.3989,73.18,97,100,3.0,VE,1659487795
500,Johnston,35.5335,-78.3997,87.08,73,0,0.0,US,1659487795
501,Wanxian,30.8039,108.3897,87.85,63,8,3.87,CN,1659487796
502,Salalah,17.0151,54.0924,77.09,94,100,5.75,OM,1659487796
503,Beloha,-25.1667,45.05,61.29,72,0,10.27,MG,1659487796
504,Nerchinskiy Zavod,51.3088,119.61,74.21,59,100,3.04,RU,1659487797
505,De Aar,-30.6497,24.0123,50.76,79,95,1.43,ZA,1659487797
506,Meridian,43.6121,-116.3915,83.98,42,0,8.05,US,1659487722
507,Pudozh,61.8099,36.5345,56.53,99,43,4.59,RU,1659487797
508,Souillac,-20.5167,57.5167,68.38,83,40,3.44,MU,1659487797
509,Kiryat Gat,31.61,34.7642,82.4,83,0,1.21,IL,1659487613
510,Mokhsogollokh,61.4681,128.9203,74.61,66,51,1.41,RU,1659487798
511,Pajapan,18.25,-94.7,77.41,88,2,7.2,MX,1659487798
512,Sibulan,9.3584,123.285,84.22,79,40,4.61,PH,1659487798
513,Romilly-sur-Seine,48.5108,3.7263,70.92,53,15,3.69,FR,1659487799
514,San Policarpo,12.1791,125.5072,84.16,73,36,3.18,PH,1659487799
515,Kaseda-shirakame,31.4167,130.3167,84.54,76,86,4.54,JP,1659487799
516,Siuna,13.7332,-84.7773,73.85,95,100,4.07,NI,1659487800
517,Bondo,3.8146,23.6866,70.81,88,74,1.59,CD,1659487800
518,Tilichiki,60.4667,166.1,60.06,64,9,6.02,RU,1659487800
519,Japura,-0.3167,102.35,73.13,96,100,3.89,ID,1659487800
520,Santa Rosa,14.3122,121.1114,85.08,82,100,5.26,PH,1659487801
521,Góra,51.6664,16.5349,65.08,69,100,6.87,PL,1659487801
522,Kenai,60.5544,-151.2583,65.03,81,100,6.91,US,1659487802
523,Chu,43.5983,73.7614,73.45,50,100,3.44,KZ,1659487802
524,Port-Gentil,-0.7193,8.7815,74.37,80,16,11.72,GA,1659487803
525,Ribeira Brava,32.65,-17.0667,73.0,85,9,4.41,PT,1659487803
526,Batemans Bay,-35.7167,150.1833,65.19,59,90,8.23,AU,1659487804
527,Elko,41.0002,-115.5012,87.75,25,24,8.99,US,1659487804
528,At-Bashi,41.1702,75.8106,54.55,82,100,3.67,KG,1659487805
529,Yanta,36.2411,115.6672,87.26,69,0,10.18,CN,1659487806
530,Tezu,27.9167,96.1667,80.1,89,100,1.1,IN,1659487806
531,Podosinovets,60.2776,47.0659,58.42,86,100,3.0,RU,1659487807
532,Usinsk,65.9939,57.5281,64.22,71,97,9.24,RU,1659487807
533,Mount Darwin,-16.7725,31.5838,53.53,91,47,5.37,ZW,1659487807
534,Ormara,25.2088,64.6357,80.87,88,100,11.99,PK,1659487807
535,Blackwater,-23.5833,148.8833,71.94,58,14,11.9,AU,1659487808
536,Sampit,-2.5333,112.95,77.88,89,93,2.35,ID,1659487808
537,Krivogastani,41.3361,21.3331,61.11,62,2,4.32,MK,1659487808
538,Vostok,46.4856,135.8833,78.15,69,23,3.58,RU,1659487809
539,Spiridonovka,53.0925,50.6462,59.47,92,0,6.46,RU,1659487809
540,Uruçuí,-7.2294,-44.5561,73.94,30,69,5.21,BR,1659487809
541,Kharp,66.8014,65.8081,61.2,68,100,1.92,RU,1659487810
542,Laas,46.6166,10.7002,65.28,88,14,1.7,IT,1659487810
543,Doha,25.2867,51.5333,94.98,68,0,3.44,QA,1659487678
544,São Paulo de Olivença,-3.3783,-68.8725,72.9,99,37,1.81,BR,1659487810
545,Mozarlândia,-14.7447,-50.5706,77.58,29,0,3.38,BR,1659487811
546,Taoudenni,22.6783,-3.9836,101.5,9,71,9.42,ML,1659487811
547,West Odessa,31.8424,-102.4988,98.62,25,0,13.8,US,1659487811
548,Iskateley,67.6803,53.1512,62.31,64,100,7.87,RU,1659487811
549,Port Hedland,-20.3167,118.5667,68.05,73,59,12.66,AU,1659487812
550,Georgiyevka,43.0369,74.7114,68.04,68,40,6.71,KZ,1659487812
551,Lerwick,60.1545,-1.1494,55.4,89,100,21.85,GB,1659487812
552,Baymak,52.5933,58.3225,58.39,82,100,10.58,RU,1659487813
553,Vangaindrano,-23.35,47.6,64.35,85,100,4.18,MG,1659487813
554,Yerbogachën,61.2767,108.0108,65.37,94,100,5.77,RU,1659487813
555,Iquique,-20.2208,-70.1431,59.04,77,58,3.67,CL,1659487679
556,Ouro Fino,-22.2831,-46.3692,60.89,55,3,3.29,BR,1659487814
557,San Vicente,-26.6167,-54.1333,62.38,75,0,2.55,AR,1659487814
558,Sittwe,20.15,92.9,82.74,79,100,8.61,MM,1659487814
559,Hukuntsi,-24.0,21.75,51.98,27,0,3.78,BW,1659487815
560,Novosergiyevka,52.0934,53.6528,60.58,94,0,4.79,RU,1659487815
561,Talcahuano,-36.7167,-73.1167,47.88,76,0,4.61,CL,1659487516
562,Pimentel,-6.8367,-79.9342,61.97,89,1,14.92,PE,1659487815
563,Gourbeyre,15.9938,-61.6914,75.63,75,85,14.23,GP,1659487815
564,Phalombe,-15.8064,35.6507,60.21,92,100,3.18,MW,1659487816
565,Vila Franca do Campo,37.7167,-25.4333,66.61,81,48,1.83,PT,1659487816
566,Tāybād,34.74,60.7756,75.69,33,0,11.77,IR,1659487816
567,Bodden Town,19.2833,-81.25,86.0,78,20,11.5,KY,1659487817
568,Viranşehir,37.2353,39.7631,85.06,33,0,7.92,TR,1659487817
569,Poli,-3.3333,36.8,52.41,89,27,2.01,TZ,1659487817
570,Kavaratti,10.5669,72.642,79.99,80,100,23.98,IN,1659487817
