City_ID,City,Lat,Lng,Max Temp,Humidity,Cloudiness,Wind Speed,Country,Date
0,Hvide Sande,56.0045,8.1294,62.1,96,100,22.73,DK,1659460096
1,Rikitea,-23.1203,-134.9692,72.07,76,92,20.11,PF,1659460096
2,Butaritari,3.0707,172.7902,81.55,74,79,18.72,KI,1659460096
3,Clyde River,70.4692,-68.5914,41.23,100,100,12.66,CA,1659459700
4,Karratha,-20.7377,116.8463,68.77,64,13,15.32,AU,1659459700
5,Kota Tinggi,1.7381,103.8999,81.14,72,89,1.54,MY,1659459701
6,Mataura,-46.1927,168.8643,44.47,79,72,9.37,NZ,1659460097
7,Narsaq,60.9167,-46.05,52.21,60,100,7.47,GL,1659459511
8,Gizo Government Station,-8.103,156.8419,81.43,76,79,6.58,SB,1659459701
9,Torbay,47.6666,-52.7314,82.76,54,75,9.22,CA,1659459509
10,Bredasdorp,-34.5322,20.0403,50.99,82,11,2.55,ZA,1659459535
11,Atuona,-9.8,-139.0333,76.51,72,8,19.8,PF,1659459599
12,Alyangula,-13.8483,136.4192,72.61,94,34,7.67,AU,1659459702
13,Kieta,-6.2167,155.6333,77.97,86,53,6.24,PG,1659459702
14,Punta Arenas,-53.15,-70.9167,44.11,75,100,7.9,CL,1659459702
15,Mnogovershinnyy,53.9353,139.9242,57.29,99,100,2.93,RU,1659459703
16,Ushuaia,-54.8,-68.3,40.66,87,75,9.22,AR,1659459833
17,Port Elizabeth,-33.918,25.5701,59.31,79,0,2.3,ZA,1659459492
18,Kapaa,22.0752,-159.319,74.19,85,14,1.01,US,1659459532
19,East London,-33.0153,27.9116,65.28,70,70,6.11,ZA,1659460098
20,Bluff,-46.6,168.3333,44.8,78,64,31.74,NZ,1659459523
21,Gramsh,40.8697,20.1844,86.0,33,13,6.51,AL,1659460098
22,Majītha,31.7583,74.9544,87.69,79,20,0.0,IN,1659460099
23,Saint Paul Harbor,57.79,-152.4072,52.66,78,28,7.72,US,1659459604
24,Kilindoni,-7.9139,39.6668,75.69,77,6,15.21,TZ,1659460099
25,Madhupur,24.25,86.65,83.16,77,100,5.93,IN,1659460099
26,Esso,55.9333,158.7,50.74,96,100,2.62,RU,1659460100
27,Chignahuapan,19.8333,-98.0333,67.84,51,47,6.69,MX,1659460100
28,Sirte,31.2089,16.5887,83.41,58,0,12.06,LY,1659460100
29,Hilo,19.7297,-155.09,73.62,90,38,4.0,US,1659459534
30,Sitka,57.0531,-135.33,54.36,91,100,4.52,US,1659459675
31,Port Hardy,50.6996,-127.4199,59.31,80,88,4.9,CA,1659460101
32,Gigmoto,13.7796,124.39,80.8,84,96,5.88,PH,1659460101
33,Yar-Sale,66.8333,70.8333,59.95,61,11,7.0,RU,1659460101
34,Talnakh,69.4865,88.3972,46.13,75,2,8.16,RU,1659459921
35,Hare Bay,48.8499,-54.0148,83.19,40,11,11.59,CA,1659460102
36,Codrington,-38.2667,141.9667,53.08,71,100,26.35,AU,1659460102
37,Ozinki,51.1786,49.6769,74.88,41,2,7.87,RU,1659460102
38,Hermanus,-34.4187,19.2345,56.8,79,15,2.33,ZA,1659460103
39,Norman Wells,65.282,-126.8329,64.06,48,99,4.45,CA,1659460103
40,West Bay,19.3667,-81.4167,91.47,75,40,13.8,KY,1659460103
41,Kaitangata,-46.2817,169.8464,46.99,77,61,14.9,NZ,1659460103
42,Leningradskiy,69.3833,178.4167,57.42,51,100,14.83,RU,1659459621
43,Poum,-20.2333,164.0167,74.57,86,66,6.53,NC,1659460104
44,Luena,-11.7833,19.9167,72.09,27,17,3.91,AO,1659460104
45,Hong Kong,22.2855,114.1577,84.38,78,100,8.01,HK,1659459910
46,Castro,-24.7911,-50.0119,76.41,35,0,5.06,BR,1659460104
47,Geraldton,-28.7667,114.6,61.21,72,75,21.85,AU,1659460105
48,Alamogordo,32.8995,-105.9603,91.6,34,0,5.01,US,1659459937
49,Kasempa,-13.4584,25.8338,67.51,35,6,5.28,ZM,1659460105
50,Esperance,-33.8667,121.9,53.13,65,100,31.99,AU,1659459771
51,Puerto Ayora,-0.7393,-90.3518,76.96,83,76,8.01,EC,1659460105
52,Bud,39.447,-86.1758,82.35,70,1,1.57,US,1659460106
53,Faanui,-16.4833,-151.75,78.21,69,46,26.49,PF,1659459524
54,Berlevåg,70.8578,29.0864,67.8,82,29,11.5,NO,1659459506
55,Praia da Vitória,38.7333,-27.0667,79.75,77,10,3.76,PT,1659460106
56,Chumikan,54.7183,135.315,54.0,99,100,4.18,RU,1659460107
57,Petropavlovka,50.6114,105.3196,66.18,84,100,4.05,RU,1659460107
58,Lucapa,-8.4192,20.7447,83.52,27,31,1.86,AO,1659459858
59,São Miguel,-5.4667,-35.3667,83.17,72,69,11.36,BR,1659460107
60,Airai,-8.9266,125.4092,55.63,86,70,2.08,TL,1659460094
61,Carnarvon,-24.8667,113.6333,62.67,72,75,19.57,AU,1659460108
62,Salalah,17.0151,54.0924,77.45,92,98,4.74,OM,1659459693
63,Arraial do Cabo,-22.9661,-42.0278,76.86,73,20,9.22,BR,1659460108
64,Pevek,69.7008,170.3133,38.07,98,100,6.13,RU,1659460108
65,Dikson,73.5069,80.5464,41.72,88,49,5.95,RU,1659459527
66,Yellowknife,62.456,-114.3525,62.56,45,17,5.01,CA,1659460083
67,Sakakah,29.9697,40.2064,103.42,10,12,4.92,SA,1659460109
68,Ambunti,-4.2365,142.8448,73.99,96,86,1.72,PG,1659460109
69,Libreville,0.3925,9.4537,77.13,73,76,10.13,GA,1659460109
70,Yaan,7.3833,8.5667,75.81,88,99,1.57,NG,1659460110
71,Chokurdakh,70.6333,147.9167,52.34,68,100,5.3,RU,1659460111
72,Lebu,-37.6167,-73.65,51.6,62,1,13.04,CL,1659459919
73,Nantucket,41.2835,-70.0995,84.31,80,0,10.36,US,1659459816
74,Tiksi,71.6872,128.8694,39.96,77,100,6.24,RU,1659460111
75,Bambous Virieux,-20.3428,57.7575,68.25,77,20,4.61,MU,1659460112
76,Puerto del Rosario,28.5004,-13.8627,80.35,74,20,20.71,ES,1659460112
77,Busselton,-33.65,115.3333,51.53,66,95,26.57,AU,1659460112
78,Avarua,-21.2078,-159.775,73.45,64,100,5.75,CK,1659459533
79,Atherton,53.5237,-2.4935,75.34,70,98,7.0,GB,1659460113
80,Namatanai,-3.6667,152.4333,78.35,79,90,8.23,PG,1659460113
81,Maibong,25.3,93.1667,74.79,99,100,2.53,IN,1659460113
82,Araouane,18.9048,-3.5265,102.18,24,20,10.4,ML,1659459837
83,Saint Anthony,45.0205,-93.218,87.3,63,0,20.71,US,1659460114
84,Tiarei,-17.5333,-149.3333,69.82,67,4,24.07,PF,1659459997
85,Aykhal,66.0,111.5,44.78,95,100,17.54,RU,1659460114
86,Sambava,-14.2667,50.1667,69.91,82,0,13.58,MG,1659460114
87,Hobart,-42.8794,147.3294,55.26,63,100,17.27,AU,1659460115
88,Humaitá,-7.5061,-63.0208,97.34,32,95,3.42,BR,1659460115
89,Russell,32.3502,-85.1999,87.39,62,0,10.36,US,1659460115
90,Challans,46.8436,-1.8749,92.32,53,31,11.63,FR,1659460116
91,Esim,4.8699,-2.2405,76.35,66,64,8.59,GH,1659460083
92,Korāput,18.8167,82.7167,74.95,82,100,3.22,IN,1659460116
93,Longyearbyen,78.2186,15.6401,53.44,76,75,5.75,SJ,1659459237
94,Bukachacha,52.9833,116.9167,61.54,91,95,2.59,RU,1659460116
95,Vylkove,45.4021,29.586,77.27,57,67,13.49,UA,1659460117
96,Ilulissat,69.2167,-51.1,46.42,93,75,3.44,GL,1659460117
97,Buchanan,5.8808,-10.0467,78.21,74,96,11.18,LR,1659460117
98,Albany,42.6001,-73.9662,83.62,63,35,9.4,US,1659459969
99,Yatou,37.15,122.3833,77.31,95,0,6.96,CN,1659459914
100,El Adelanto,14.1667,-89.8333,76.39,60,11,8.23,GT,1659460118
101,Fortuna,40.5982,-124.1573,72.93,75,20,4.61,US,1659460118
102,Kidal,18.4411,1.4078,98.04,28,54,11.95,ML,1659459992
103,Namwala,-15.7504,26.4384,69.67,37,12,6.44,ZM,1659460118
104,Bafoussam,5.4737,10.4179,63.41,93,96,5.53,CM,1659460119
105,Tuktoyaktuk,69.4541,-133.0374,45.23,86,99,12.59,CA,1659459696
106,Katsuura,35.1333,140.3,80.2,93,100,8.32,JP,1659460119
107,Provideniya,64.3833,-173.3,52.45,61,28,4.92,RU,1659460119
108,Flin Flon,54.7682,-101.865,56.03,89,100,5.23,CA,1659460029
109,Polson,47.6936,-114.1632,83.21,27,6,5.01,US,1659460120
110,Inírida,3.8653,-67.9239,73.42,98,100,1.45,CO,1659460120
111,Wanaka,-44.7,169.15,39.31,91,83,5.91,NZ,1659459616
112,Murgab,37.4966,61.9714,86.09,25,1,7.4,TM,1659460120
113,Vardø,70.3705,31.1107,57.18,94,0,4.61,NO,1659460121
114,Korla,41.7597,86.1469,78.93,39,50,3.11,CN,1659459522
115,Hithadhoo,-0.6,73.0833,80.85,74,25,12.95,MV,1659460121
116,Olonets,60.9847,32.9698,61.03,91,81,6.44,RU,1659460121
117,Dongargaon,20.9667,80.85,82.51,74,100,5.35,IN,1659460122
118,Lima,-12.0432,-77.0282,61.05,77,100,8.05,PE,1659459845
119,Kohlu,29.8962,69.252,84.63,51,3,8.86,PK,1659460122
120,Ahipara,-35.1667,173.1667,53.85,89,100,5.75,NZ,1659459600
121,Rundu,-17.9333,19.7667,69.21,20,21,2.06,NA,1659460122
122,Tabou,4.423,-7.3528,76.59,68,76,8.9,CI,1659460123
123,La Ronge,55.1001,-105.2842,51.73,96,100,9.78,CA,1659460123
124,Gwanda,-20.9333,29.0,59.83,68,3,15.43,ZW,1659460123
125,Mareeba,-17.0,145.4333,65.12,91,46,2.82,AU,1659460123
126,Crixás,-14.5489,-49.9692,94.93,16,15,7.9,BR,1659460124
127,Barrow,71.2906,-156.7887,40.6,68,38,14.43,US,1659459857
128,Barra Patuca,15.8,-84.2833,83.5,83,84,12.82,HN,1659460124
129,Jamestown,42.097,-79.2353,78.53,57,40,12.66,US,1659459954
130,Līsakovsk,52.5369,62.4936,65.07,83,97,12.28,KZ,1659460125
131,Bartica,6.4,-58.6167,86.32,86,66,3.6,GY,1659460125
132,Saskylakh,71.9167,114.0833,43.68,87,100,6.76,RU,1659460125
133,Port Alfred,-33.5906,26.891,59.18,74,72,7.14,ZA,1659459878
134,Chimoio,-19.1164,33.4833,58.66,90,38,5.12,MZ,1659460126
135,Mar del Plata,-38.0023,-57.5575,54.95,85,100,14.0,AR,1659460029
136,Bolshaya Dzhalga,45.9695,42.6966,89.98,24,66,6.2,RU,1659460126
137,Qaanaaq,77.484,-69.3632,46.09,57,92,2.44,GL,1659459603
138,Ruteng,-8.6136,120.4721,61.18,95,79,1.45,ID,1659460126
139,Cape Town,-33.9258,18.4232,59.11,85,14,5.99,ZA,1659460117
140,New Norfolk,-42.7826,147.0587,54.91,70,100,3.0,AU,1659460127
141,Mahébourg,-20.4081,57.7,68.29,77,20,4.61,MU,1659460127
142,Griffith,41.5284,-87.4237,84.88,64,0,9.22,US,1659460127
143,Hauterive,46.0901,3.4459,88.56,25,17,5.97,FR,1659459931
144,Nísia Floresta,-6.0911,-35.2086,83.21,72,62,10.2,BR,1659460128
145,Daru,-9.0763,143.2092,77.54,92,75,15.73,PG,1659459694
146,Bethel,41.3712,-73.414,87.73,65,3,1.99,US,1659459620
147,Chui,-33.6971,-53.4616,62.47,80,99,8.32,UY,1659459827
148,Baruun-Urt,46.6806,113.2792,65.37,76,9,3.0,MN,1659460128
149,Bantou,26.2151,117.4893,76.3,98,100,0.49,CN,1659460128
150,Grand Gaube,-20.0064,57.6608,68.4,74,3,3.0,MU,1659460129
151,Broken Hill,-31.95,141.4333,58.71,64,13,31.76,AU,1659460129
152,College,64.8569,-147.8028,59.29,92,75,5.75,US,1659459925
153,Faya,18.3851,42.4509,61.32,76,89,5.14,SA,1659460129
154,Phonhong,18.5007,102.4166,75.07,94,91,0.36,LA,1659460130
155,Vaini,-21.2,-175.2,73.56,94,40,8.05,TO,1659460130
156,Constitución,-35.3333,-72.4167,56.21,55,0,8.59,CL,1659460130
157,Vrangel',42.7297,133.0839,70.68,96,90,3.8,RU,1659460130
158,Khatanga,71.9667,102.5,44.17,69,100,5.61,RU,1659459700
159,Nara,34.6851,135.8049,84.49,61,100,3.13,JP,1659460131
160,Podporozh'ye,60.9112,34.1706,61.23,97,98,6.91,RU,1659460131
161,Te Anau,-45.4167,167.7167,44.78,88,52,8.57,NZ,1659460131
162,Bandarbeyla,9.4942,50.8122,76.6,78,10,31.47,SO,1659460132
163,Sioux Lookout,50.1001,-91.917,71.64,62,80,5.53,CA,1659460132
164,Umluj,25.0213,37.2685,87.6,57,99,1.3,SA,1659459908
165,Harrismith,-28.2728,29.1295,52.54,63,75,1.5,ZA,1659460132
166,Severo-Yeniseyskiy,60.3725,93.0408,46.11,96,100,1.63,RU,1659460133
167,Clarksdale,34.2001,-90.5709,87.78,79,40,8.05,US,1659460133
168,Liverpool,53.4106,-2.9779,75.74,72,40,21.85,GB,1659460059
169,Cherskiy,68.75,161.3,52.9,98,100,5.35,RU,1659459584
170,Guadalupe,25.6833,-100.25,88.63,54,0,12.66,MX,1659459881
171,Cabo San Lucas,22.8909,-109.9124,91.62,61,40,4.61,MX,1659459970
172,Banda Aceh,5.5577,95.3222,76.89,85,100,17.16,ID,1659460133
173,Cidreira,-30.1811,-50.2056,63.55,72,25,8.61,BR,1659459416
174,Tena,-0.9833,-77.8167,80.76,96,98,0.96,EC,1659460134
175,Taoudenni,22.6783,-3.9836,115.14,7,25,8.55,ML,1659460134
176,Marawi,7.9986,124.2928,68.68,92,99,2.28,PH,1659460135
177,Santa Maria,-29.6842,-53.8069,70.9,67,85,6.24,BR,1659460135
178,Yamada,39.4667,141.95,71.24,97,100,2.08,JP,1659460135
179,Plácido de Castro,-10.3353,-67.1856,97.41,28,67,3.78,BR,1659460136
180,Indian Head,38.6001,-77.1622,92.1,57,0,9.22,US,1659460136
181,Mahon,39.8885,4.2658,91.96,29,0,8.05,ES,1659460136
182,Sungai Penuh,-2.0833,101.3833,65.37,98,100,0.87,ID,1659460136
183,Broome,42.2506,-75.833,85.17,57,40,8.05,US,1659460137
184,Goulburn,-34.75,149.7167,45.61,57,93,10.74,AU,1659460137
185,Vestmannaeyjar,63.4427,-20.2734,56.39,50,40,13.8,IS,1659460137
186,Guerrero Negro,27.9769,-114.0611,80.26,52,91,11.56,MX,1659460138
187,Tuatapere,-46.1333,167.6833,48.09,81,61,12.59,NZ,1659459599
188,Egvekinot,66.3167,-179.1667,50.5,65,0,2.98,RU,1659460138
189,Mitsamiouli,-11.3847,43.2844,76.6,74,2,9.01,KM,1659460138
190,Ust-Tsilma,65.441,52.1498,65.8,56,94,2.66,RU,1659460095
191,Montes Claros,-16.735,-43.8617,88.02,22,0,7.78,BR,1659460139
192,Villa María,-32.4075,-63.2402,64.81,63,14,5.73,AR,1659460139
193,Ozar,20.1,73.9333,74.34,90,100,6.98,IN,1659460139
194,Rome,43.2128,-75.4557,79.72,70,75,13.8,US,1659459657
195,Linxia Chengguanzhen,35.6003,103.2064,70.36,71,84,1.99,CN,1659460140
196,Yasnyy,51.0333,59.8742,64.11,75,98,6.11,RU,1659460140
197,Beringovskiy,63.05,179.3167,53.89,67,76,6.87,RU,1659460096
198,Cockburn Town,21.4612,-71.1419,82.44,72,15,13.94,TC,1659460140
199,Le Locle,47.0595,6.7523,83.19,41,0,4.61,CH,1659460141
200,Hasaki,35.7333,140.8333,81.28,90,91,7.65,JP,1659460015
201,Ponta do Sol,32.6667,-17.1,82.71,69,1,3.04,PT,1659460141
202,Orgtrud,56.1832,40.6149,69.15,58,64,7.2,RU,1659460141
203,Takoradze,4.8845,-1.7554,76.37,68,49,12.28,GH,1659460142
204,Reyes,-14.3167,-67.3833,77.16,88,100,0.0,BO,1659460142
205,Oxbow,49.2333,-102.1676,81.64,67,79,16.42,CA,1659460142
206,Nikolskoye,59.7035,30.7861,67.91,81,44,2.75,RU,1659459689
207,Tasiilaq,65.6145,-37.6368,50.16,63,4,4.9,GL,1659460143
208,Hibbing,47.4272,-92.9377,76.6,60,40,10.36,US,1659460143
209,Awjilah,29.1081,21.2869,94.5,22,0,11.7,LY,1659460143
210,Nouadhibou,20.931,-17.0347,71.24,90,10,10.22,MR,1659460144
211,Manta,-0.95,-80.7333,76.78,73,100,11.5,EC,1659459853
212,Gimli,50.6336,-96.9907,69.67,73,81,12.1,CA,1659460144
213,Mehamn,71.0357,27.8492,62.55,72,0,3.44,NO,1659460144
214,Bayan,46.0833,127.4,72.16,79,45,3.67,CN,1659459927
215,Hvolsvollur,63.7533,-20.2243,56.07,52,93,11.59,IS,1659460145
216,São Filipe,14.8961,-24.4956,78.91,76,67,3.29,CV,1659460145
217,San Cristobal,7.7669,-72.225,73.58,78,98,5.77,VE,1659459973
218,Onega,63.9061,38.1404,60.46,97,100,11.5,RU,1659460145
219,Alice Springs,-23.7,133.8833,72.95,18,40,12.66,AU,1659460146
220,Fukuechō,32.6881,128.8419,81.37,91,67,11.5,JP,1659460146
221,Saint-Augustin,51.226,-58.6502,71.2,75,100,18.54,CA,1659459597
222,Khuzdar,27.7384,66.6434,87.13,47,78,6.82,PK,1659460146
223,Sola,-13.8833,167.55,80.89,78,72,16.17,VU,1659460147
224,Tezu,27.9167,96.1667,77.09,96,98,3.36,IN,1659460147
225,Lompoc,34.6391,-120.4579,81.84,76,70,3.0,US,1659459616
226,Iznoski,54.9881,35.3108,67.15,72,84,3.89,RU,1659460147
227,Kiryat Gat,31.61,34.7642,86.4,100,9,7.29,IL,1659459927
228,Nanortalik,60.1432,-45.2371,47.82,79,94,12.91,GL,1659460148
229,Thompson,55.7435,-97.8558,57.36,100,100,4.61,CA,1659459557
230,Sørland,67.667,12.6934,55.26,74,34,7.11,NO,1659459686
231,Hays,30.0502,-98.0336,96.1,46,9,11.01,US,1659460148
232,Kloulklubed,7.0419,134.2556,82.99,75,100,11.3,PW,1659460149
233,Cabedelo,-6.9811,-34.8339,77.67,79,31,9.91,BR,1659459857
234,Price,39.5994,-110.8107,77.11,53,0,5.75,US,1659460039
235,Srikakulam,18.3,83.9,82.45,85,100,6.69,IN,1659460149
236,Rogers,36.3668,-95.5836,94.1,63,6,4.0,US,1659460149
237,Plettenberg Bay,-34.0527,23.3716,58.32,55,77,2.3,ZA,1659460150
238,Novobirilyussy,56.9514,90.6661,53.92,78,67,3.89,RU,1659460150
239,Kermanshah,34.3142,47.065,92.3,9,0,11.5,IR,1659460150
240,Vágur,61.4732,-6.8119,50.45,92,100,14.79,FO,1659460151
241,Cao Bang,22.6667,106.25,76.51,90,61,1.07,VN,1659460151
242,San Patricio,28.017,-97.5169,95.72,40,22,14.0,US,1659460151
243,Ndjolé,-0.1783,10.7649,87.64,40,74,5.35,GA,1659460151
244,Kahului,20.8947,-156.47,76.84,75,40,12.66,US,1659460152
245,Bonfim,3.0833,-59.95,87.33,62,19,4.47,BR,1659460152
246,Kazygurt,41.7589,69.3864,71.08,63,90,6.69,KZ,1659460152
247,Fairbanks,64.8378,-147.7164,59.59,93,100,3.44,US,1659459406
248,Pangai,-19.8,-174.35,76.86,77,35,21.05,TO,1659460153
249,Aksarka,66.5606,67.7975,61.79,61,7,8.1,RU,1659460153
250,Saint-Philippe,-21.3585,55.7679,69.39,80,47,8.41,RE,1659460154
251,Rabo de Peixe,37.8,-25.5833,72.91,78,75,5.75,PT,1659460154
252,Portland,45.5234,-122.6762,73.94,70,75,4.61,US,1659459932
253,Sur,22.5667,59.5289,90.39,60,6,2.35,OM,1659459919
254,Ulladulla,-35.35,150.4667,53.76,54,100,6.82,AU,1659460154
255,Gemeente Enkhuizen,52.7,5.2833,80.98,74,97,8.99,NL,1659460155
256,Brejo,-3.6844,-42.7503,92.5,33,68,5.79,BR,1659460155
257,Krasnosel'kup,65.7,82.4667,51.44,74,18,10.42,RU,1659460155
258,Mumford,5.2618,-0.759,74.46,74,86,11.36,GH,1659460156
259,Chicama,-7.8447,-79.1469,59.54,66,42,9.42,PE,1659460088
260,Itarema,-2.9248,-39.9167,85.26,56,65,16.49,BR,1659460086
261,Bengkulu,-3.8004,102.2655,74.77,92,87,3.2,ID,1659460156
262,Ribeira Grande,38.5167,-28.7,77.4,78,75,8.05,PT,1659460157
263,Lohja,60.2486,24.0653,71.44,54,71,7.49,FI,1659460157
264,Khipro,25.8285,69.3772,91.27,60,26,19.33,PK,1659460100
265,Yumen,40.2833,97.2,74.28,48,90,6.55,CN,1659459610
266,Banjar,-8.19,114.9675,75.88,91,100,3.67,ID,1659460157
267,Sembakung,3.8167,117.25,72.82,98,94,2.06,ID,1659460158
268,Stornoway,58.2093,-6.3865,59.94,91,75,18.41,GB,1659460158
269,Kavieng,-2.5744,150.7967,81.86,72,88,18.28,PG,1659460158
270,Sobolevo,54.4299,31.8996,67.55,78,100,2.15,RU,1659460159
271,Denpasar,-8.65,115.2167,78.46,94,40,2.3,ID,1659460159
272,Ekhabi,53.5102,142.9671,54.0,96,54,14.74,RU,1659460159
273,Ariquemes,-9.9133,-63.0408,97.38,26,99,4.36,BR,1659460160
274,Pangnirtung,66.1451,-65.7125,46.4,81,75,10.36,CA,1659459598
275,Mildura,-34.2,142.15,62.08,59,82,25.77,AU,1659460160
276,Arrondissement de Saint-Denis,48.9167,2.3333,91.15,37,0,4.61,FR,1659460160
277,Poplar Bluff,36.757,-90.3929,92.34,77,20,11.5,US,1659459968
278,Isiro,2.7739,27.616,73.27,71,81,2.24,CD,1659460161
279,Suileng,47.25,127.0833,70.93,84,93,2.3,CN,1659459925
280,George Town,5.4112,100.3354,78.73,95,40,4.61,MY,1659459953
281,Aklavik,68.2191,-135.0107,47.82,73,100,16.28,CA,1659459770
282,Huarmey,-10.0681,-78.1522,67.1,73,57,10.36,PE,1659459930
283,Upernavik,72.7868,-56.1549,45.77,74,83,10.76,GL,1659459687
284,Plouzané,48.3833,-4.6167,79.12,62,0,10.36,FR,1659460161
285,Iqaluit,63.7506,-68.5145,45.7,81,92,3.0,CA,1659460162
286,Ampanihy,-24.7,44.75,62.17,64,0,14.18,MG,1659460161
287,Nogliki,51.8333,143.1667,55.58,94,100,4.36,RU,1659460162
288,Lang Son,21.8333,106.7333,76.78,88,67,2.8,VN,1659459864
289,Rincon,32.296,-81.2354,93.85,61,40,9.22,US,1659459863
290,Weligama,5.9667,80.4167,77.18,86,100,18.77,LK,1659460162
291,Umarkot,25.3616,69.7362,88.74,65,80,20.27,PK,1659460163
292,Kruisfontein,-34.0033,24.7314,54.75,64,67,2.86,ZA,1659460163
293,Ourém,39.6417,-8.5919,95.61,51,0,1.01,PT,1659460163
294,Salaga,8.5508,-0.5188,79.27,73,99,6.51,GH,1659460164
295,Severo-Kuril'sk,50.6789,156.125,51.53,85,84,7.14,RU,1659459696
296,Lumeje,-11.55,20.7833,77.88,25,76,3.24,AO,1659460164
297,Valkeala,60.9401,26.7979,70.2,56,40,9.22,FI,1659460164
298,Kysyl-Syr,63.8986,122.7617,53.06,68,79,5.99,RU,1659460165
299,Medyn',54.9692,35.8586,67.46,71,94,2.95,RU,1659460165
300,Athabasca,54.7169,-113.2854,55.18,93,100,11.41,CA,1659460165
301,Bac Lieu,9.285,105.7244,80.55,83,100,5.68,VN,1659460166
302,Terney,45.0503,136.6092,66.87,98,80,2.98,RU,1659460166
303,Haines Junction,60.7522,-137.5108,54.09,75,98,1.95,CA,1659460166
304,Nioro,13.35,-15.75,84.67,69,71,9.1,GM,1659460166
305,Oberá,-27.4871,-55.1199,79.93,42,83,4.97,AR,1659460167
306,Turan,16.0678,108.2208,78.78,83,20,3.44,VN,1659459955
307,Borshchiv,48.8033,26.0435,71.4,54,3,9.91,UA,1659460167
308,Mount Isa,-20.7333,139.5,60.57,59,5,0.0,AU,1659460168
309,Evensk,61.95,159.2333,51.87,97,100,4.99,RU,1659460168
310,Kosh-Agach,50.0,88.6667,51.55,77,21,3.74,RU,1659460168
311,Zwedru,6.0667,-8.1281,77.81,72,96,4.0,LR,1659460169
312,Souillac,-20.5167,57.5167,68.38,77,20,4.61,MU,1659459693
313,Saldanha,-33.0117,17.9442,56.93,77,26,10.58,ZA,1659459687
314,Rafai,4.95,23.9167,74.66,75,44,3.11,CF,1659460169
315,Camacha,33.0833,-16.3333,71.02,68,75,17.27,PT,1659460169
316,Bathsheba,13.2167,-59.5167,88.41,81,20,23.02,BB,1659460170
317,Westport,41.1415,-73.3579,90.09,65,0,11.5,US,1659460093
318,Inverness,57.4791,-4.224,69.71,69,40,19.57,GB,1659460170
319,Lagoa,39.05,-27.9833,74.59,74,0,13.8,PT,1659460170
320,Vegreville,53.5001,-112.0518,57.0,93,100,15.03,CA,1659460171
321,Florianópolis,-27.6146,-48.5012,70.63,66,20,8.05,BR,1659460171
322,Port Blair,11.6667,92.75,78.78,93,100,15.93,IN,1659460171
323,Belaya Gora,68.5333,146.4167,51.73,91,100,6.89,RU,1659460172
324,Charters Towers,-20.1,146.2667,59.9,96,5,7.4,AU,1659460172
325,Billings Metropolitan Area,45.7833,-108.5007,89.51,32,75,10.36,US,1659459917
326,Nosy Varika,-20.5833,48.5333,67.39,88,24,6.8,MG,1659460041
327,Kumul,42.8,93.45,79.07,43,100,6.6,CN,1659460174
328,San Vicente,-26.6167,-54.1333,82.47,31,15,6.15,AR,1659460175
329,Kumano,34.3442,132.5894,81.52,93,58,3.85,JP,1659460176
330,Kailua,21.4022,-157.7394,75.65,80,100,8.05,US,1659460014
331,Horodkivka,49.9068,28.9847,66.58,85,100,4.65,UA,1659460177
332,Coburg,50.2667,10.9667,83.8,52,45,4.74,DE,1659460177
333,Monte Alegre,-2.0078,-54.0692,91.04,48,16,4.7,BR,1659460177
334,Ajuchitlán,20.7167,-100.0167,69.19,57,99,3.13,MX,1659460178
335,Dhidhdhoo,6.8833,73.1,80.92,78,100,23.0,MV,1659459698
336,Wasilla,61.5814,-149.4394,56.75,89,100,3.44,US,1659459990
337,Imeni Poliny Osipenko,52.4201,136.4853,59.63,90,96,5.64,RU,1659460178
338,Medzilaborce,49.2719,21.9007,69.98,87,18,4.43,SK,1659460178
339,Oranjemund,-28.55,16.4333,54.88,82,6,4.32,NA,1659460182
340,Grindavik,63.8424,-22.4338,52.27,62,75,23.02,IS,1659459939
341,Sabzawār,36.2126,57.6819,85.57,22,0,9.69,IR,1659460182
342,São José do Belmonte,-7.8614,-38.7597,77.41,59,85,12.86,BR,1659460182
343,Graaff-Reinet,-32.2522,24.5308,62.92,50,81,6.69,ZA,1659460183
344,Shingū,33.7333,135.9833,78.06,85,100,6.44,JP,1659460183
345,Mackay,-21.15,149.2,64.69,94,21,6.93,AU,1659460183
346,Cullman,34.1748,-86.8436,86.09,78,40,3.44,US,1659459919
347,Gushikawa,26.3544,127.8686,81.63,89,0,5.75,JP,1659460184
348,Tura,25.5198,90.2201,75.45,91,100,2.71,IN,1659459492
349,Ginda,30.6945,78.4932,66.6,95,24,1.14,IN,1659460184
350,Riyadh,24.6877,46.7219,102.34,31,20,8.99,SA,1659460184
351,Kralendijk,12.15,-68.2667,87.78,66,75,18.41,BQ,1659460185
352,Pachino,36.7186,15.0907,83.39,60,0,8.37,IT,1659460185
353,Dijkot,31.2167,72.9833,91.71,54,8,4.52,PK,1659460185
354,Mount Gambier,-37.8333,140.7667,53.51,82,75,17.27,AU,1659460136
355,Rize,40.9044,40.8949,57.83,93,56,1.92,TR,1659460186
356,Tongliao,43.6125,122.2653,77.27,83,82,6.06,CN,1659460186
357,Tulsīpur,28.131,82.2973,74.46,94,100,3.49,NP,1659460186
358,Saint George,37.1041,-113.5841,93.43,39,0,1.01,US,1659460186
359,Sorong,-0.8833,131.25,76.66,90,100,7.29,ID,1659460187
360,Acaraú,-2.8856,-40.12,86.04,55,56,16.6,BR,1659460187
361,Kuching,1.55,110.3333,75.42,100,40,0.0,MY,1659460187
362,Manatí,18.4275,-66.4921,91.18,78,8,17.6,PR,1659460188
363,Kabare,-2.4683,28.8242,62.55,89,50,1.7,CD,1659460188
364,Bonthe,7.5264,-12.505,74.93,88,100,10.65,SL,1659460188
365,Devils Lake,48.1128,-98.8651,75.18,76,0,8.05,US,1659460188
366,Cabinda,-5.55,12.2,71.78,78,17,12.06,AO,1659460189
367,Hambantota,6.1241,81.1185,78.46,79,100,23.98,LK,1659460189
368,Jalu,29.0331,21.5482,94.48,20,0,12.55,LY,1659460189
369,Bilma,18.6853,12.9164,98.78,27,71,10.16,NE,1659459614
370,Yulara,-25.2406,130.9889,61.27,46,58,8.95,AU,1659460190
371,Krasnoye-na-Volge,57.5125,41.2419,67.23,61,100,7.56,RU,1659460190
372,Balkanabat,39.5108,54.3671,92.12,27,3,10.47,TM,1659460190
373,Balancán,17.8,-91.5333,87.94,58,95,16.08,MX,1659460146
374,Sabang,5.8933,95.3214,79.86,80,100,28.34,ID,1659459693
375,Belūsovka,50.1339,82.5239,59.02,93,56,0.63,KZ,1659460191
376,Adré,13.4667,22.2,82.15,54,25,4.56,TD,1659460191
377,Coruripe,-10.1256,-36.1756,73.76,85,100,13.38,BR,1659459908
378,Kalmunai,7.4167,81.8167,80.22,70,100,6.82,LK,1659460191
379,Dzilam González,21.2833,-88.9333,92.88,49,45,5.55,MX,1659460192
380,Ţahţā,26.7693,31.5021,97.48,16,8,10.6,EG,1659460192
381,Port Hueneme,34.1478,-119.1951,89.06,73,20,10.36,US,1659460192
382,Puro,12.4841,123.3827,80.71,82,90,7.2,PH,1659460193
383,Naviraí,-23.065,-54.1906,89.01,24,4,9.6,BR,1659460193
384,Thyborøn,56.6985,8.2124,62.19,97,100,24.25,DK,1659460193
385,Zharkent,44.1628,80.0,76.44,28,18,6.62,KZ,1659460193
386,Kabinda,-6.1333,24.4833,79.0,28,78,5.14,CD,1659460194
387,Queanbeyan,-35.35,149.2333,47.61,86,80,3.44,AU,1659460194
388,Cascais,38.6979,-9.4215,87.26,54,20,10.36,PT,1659459776
389,Çubuk,40.2386,33.0322,82.15,39,20,14.97,TR,1659460194
390,Pedernales,18.0384,-71.744,87.8,61,19,8.34,DO,1659460195
391,Ancud,-41.8697,-73.8203,47.23,77,98,3.74,CL,1659460195
392,Valle d'Aosta,45.7667,7.4167,74.17,42,25,21.85,IT,1659460195
393,Sinjār,36.3209,41.8754,101.62,12,0,10.54,IQ,1659459924
394,Palmer,42.1584,-72.3287,88.63,63,21,5.01,US,1659459778
395,Lüderitz,-26.6481,15.1594,55.74,75,0,3.98,NA,1659460196
396,Tecpan,14.7623,-90.9947,65.61,50,12,7.07,GT,1659460196
397,Isangel,-19.55,169.2667,75.83,91,100,7.54,VU,1659460098
398,Hirara,24.8,125.2833,84.13,75,51,15.37,JP,1659460196
399,Qaqortoq,60.7167,-46.0333,50.04,70,99,8.25,GL,1659460197
400,Luanda,-8.8368,13.2343,67.12,79,26,13.71,AO,1659460091
401,São João da Barra,-21.6403,-41.0511,86.09,73,5,13.06,BR,1659460197
402,Ma’anshan,31.6957,118.4983,82.4,81,0,5.19,CN,1659460197
403,Atikokan,48.7555,-91.6216,77.14,45,42,7.49,CA,1659460198
404,Cap-aux-Meules,47.3821,-61.8597,68.23,89,47,16.15,CA,1659460110
405,Pacific Grove,36.6177,-121.9166,77.38,81,0,8.01,US,1659460198
406,Krutikha,53.9599,81.2093,58.82,70,29,7.92,RU,1659460198
407,Upington,-28.4478,21.2561,58.33,69,100,13.31,ZA,1659460198
408,Leh,34.1667,77.5833,66.0,32,2,6.76,IN,1659460052
409,Laguna,38.421,-121.4238,90.01,59,0,3.44,US,1659459849
410,Matara,5.9485,80.5353,77.11,86,99,18.57,LK,1659460199
411,Santa Fe,-31.6333,-60.7,69.98,47,92,4.0,AR,1659460199
412,Khomeyn,33.6423,50.0789,86.25,20,74,5.79,IR,1659460199
413,Pato Branco,-26.2286,-52.6706,75.29,52,0,5.46,BR,1659460200
414,Yarmouth,41.7057,-70.2286,88.14,71,0,20.71,US,1659460200
415,Sumbe,-11.2061,13.8437,67.33,76,100,6.2,AO,1659460200
416,Vila Velha,-20.3297,-40.2925,82.35,73,20,16.11,BR,1659460082
417,Zyryanka,65.75,150.85,63.23,96,100,15.12,RU,1659460201
418,Chiredzi,-21.05,31.6667,61.9,78,43,5.61,ZW,1659460201
419,Caravelas,-17.7125,-39.2481,78.13,61,81,6.85,BR,1659460202
420,Alta Floresta,-9.8756,-56.0861,96.69,16,91,6.76,BR,1659460202
421,Atambua,-9.1061,124.8925,68.23,85,63,4.14,ID,1659460202
422,Blackwater,-23.5833,148.8833,58.98,89,53,8.01,AU,1659460203
423,Jiménez,28.3333,-105.4,90.1,25,4,3.58,MX,1659460203
424,Kavaratti,10.5669,72.642,78.21,83,100,31.61,IN,1659460084
425,Guerrero,17.6667,-100.0,76.73,70,80,4.12,MX,1659460203
426,Srednekolymsk,67.45,153.6833,60.64,96,100,7.23,RU,1659460204
427,Dubbo,-32.25,148.6167,48.33,81,100,5.75,AU,1659460204
428,Magistral'nyy,56.1725,107.4458,61.25,99,97,3.42,RU,1659460205
429,Aranos,-24.1333,19.1167,56.86,19,0,11.59,NA,1659460205
430,Nome,64.5011,-165.4064,55.47,82,0,0.0,US,1659460165
431,Ust'-Ishim,57.6935,71.1665,55.76,71,0,5.01,RU,1659460171
432,Lugus,5.7036,120.8203,81.93,78,76,7.11,PH,1659460205
433,Naze,28.3667,129.4833,79.57,87,14,10.31,JP,1659460206
434,Ostrovnoy,68.0531,39.5131,62.62,76,21,13.2,RU,1659460206
435,Erzin,36.9559,36.2,78.39,86,9,5.44,TR,1659460206
436,Gaoua,10.2992,-3.2508,79.77,74,94,4.54,BF,1659460207
437,Baykal'sk,51.5058,104.1469,60.66,93,100,2.62,RU,1659460207
438,Iskateley,67.6803,53.1512,65.34,57,100,7.78,RU,1659460207
439,Boké,10.9409,-14.2967,80.89,83,95,6.26,GN,1659460208
440,Kokopo,-4.352,152.2633,76.98,78,83,5.41,PG,1659460208
441,Gemeente Heiloo,52.6,4.7,79.95,62,93,11.01,NL,1659460208
442,Isabela,6.7085,121.9711,78.31,86,99,2.71,PH,1659459992
443,Xining,36.6167,101.7667,67.05,67,87,3.09,CN,1659460209
444,Lázaro Cárdenas,17.9583,-102.2,88.5,59,99,2.82,MX,1659460209
445,Sibu,2.3,111.8167,74.44,99,71,0.4,MY,1659460209
446,Wendo,6.6,38.4167,56.17,98,93,1.1,ET,1659460210
447,Galle,6.0367,80.217,77.95,85,100,20.83,LK,1659459791
448,Srandakan,-7.9386,110.2506,74.48,92,73,2.64,ID,1659460210
449,Husavik,66.0449,-17.3389,45.55,97,100,15.32,IS,1659459934
450,Simao,22.7886,100.9748,65.64,98,59,2.21,CN,1659460211
451,Farafangana,-22.8167,47.8333,67.42,81,80,10.98,MG,1659460211
452,Iquitos,-3.7481,-73.2472,87.84,66,75,3.44,PE,1659460211
453,Maceió,-9.6658,-35.7353,76.44,94,100,12.66,BR,1659460007
454,Adrar,20.5022,-10.0711,102.34,19,26,8.88,MR,1659459689
455,Skjervøy,70.0311,20.9714,55.4,94,100,2.86,NO,1659460212
456,Matagami,49.7502,-77.6328,65.89,42,26,8.14,CA,1659460212
457,Tefé,-3.3542,-64.7114,82.51,83,75,0.0,BR,1659460213
458,Necochea,-38.5473,-58.7368,60.04,56,100,8.23,AR,1659459765
459,Maţāy,28.419,30.7792,96.17,18,13,8.57,EG,1659460213
460,Otuzco,-7.9,-78.5833,61.29,48,32,8.72,PE,1659460213
461,Escanaba,45.7453,-87.0646,76.51,69,0,12.66,US,1659460214
462,Izumo,35.3667,132.7667,78.01,92,99,6.26,JP,1659460096
463,Chippewa Falls,44.9369,-91.3929,81.9,58,10,14.16,US,1659459966
464,Balabac,7.9868,117.0645,82.45,77,93,10.47,PH,1659460214
465,Coahuayana Viejo,18.7333,-103.6833,90.86,57,83,1.83,MX,1659459691
466,Brasília,-15.7797,-47.9297,82.62,30,40,10.36,BR,1659460075
467,Pitimbu,-7.4706,-34.8086,77.59,78,27,8.34,BR,1659460215
468,Mookane,-23.688,26.6595,62.19,55,39,15.3,BW,1659460215
469,Ambon City,-3.6954,128.1814,75.34,94,75,6.91,ID,1659460215
470,Mozarlândia,-14.7447,-50.5706,97.09,14,9,7.63,BR,1659460216
471,Samarai,-10.6167,150.6667,80.01,84,36,16.53,PG,1659460216
472,Muros,42.7762,-9.0603,92.68,62,14,11.72,ES,1659460217
473,Yenagoa,4.9247,6.2642,79.03,73,97,8.88,NG,1659460217
474,Chotila,22.4167,71.1833,82.36,73,96,12.84,IN,1659460217
475,Øksfjord,70.2396,22.3479,59.07,95,100,6.31,NO,1659460013
476,Lavrentiya,65.5833,-171.0,51.94,64,12,5.39,RU,1659460218
477,Abeokuta,7.15,3.35,76.35,79,100,4.36,NG,1659460218
478,Nizwá,22.9333,57.5333,78.87,83,90,5.01,OM,1659460218
479,Wattens,47.2722,11.5993,75.11,47,20,12.66,AT,1659460219
480,Beloha,-25.1667,45.05,62.2,64,2,10.85,MG,1659460219
481,Rantepao,-2.9701,119.8978,65.12,98,99,2.1,ID,1659460219
482,Schübelbach,47.1733,8.9281,85.93,63,75,3.69,CH,1659460219
483,Swan River,52.1058,-101.2676,70.52,72,85,9.82,CA,1659460220
484,Prince Rupert,54.3161,-130.3201,55.49,100,100,6.91,CA,1659460220
485,Bulgan,48.8125,103.5347,64.29,75,100,2.21,MN,1659460220
486,Kalawit,8.0667,122.5167,78.39,85,100,3.49,PH,1659460221
487,Brandon,27.9378,-82.2859,96.21,72,40,5.01,US,1659460158
488,Dunedin,-45.8742,170.5036,52.81,55,65,15.01,NZ,1659460221
489,Gävle,60.6745,17.1417,70.38,51,99,3.0,SE,1659459695
490,Morón,-34.6534,-58.6198,63.01,72,93,6.51,AR,1659460013
491,Sulangan,11.1373,123.7228,83.84,74,85,5.57,PH,1659460221
492,Elizabethtown,37.694,-85.8591,84.76,56,0,3.44,US,1659460222
493,Jumla,29.2747,82.1838,63.57,98,95,1.05,NP,1659460222
494,Rocha,-34.4833,-54.3333,64.11,74,100,10.94,UY,1659460222
495,Osakarovka,50.565,72.5692,62.2,59,51,9.6,KZ,1659460223
496,Oeiras,-7.0253,-42.1311,96.13,13,16,9.57,BR,1659460223
497,Zanjān,36.6736,48.4787,76.51,57,53,8.21,IR,1659460223
498,Zhigansk,66.7697,123.3711,49.01,62,62,16.87,RU,1659459907
499,Atar,20.5169,-13.0499,99.32,27,4,13.06,MR,1659459923
500,Khandyga,62.6667,135.6,62.19,97,99,4.27,RU,1659460224
501,Klaksvík,62.2266,-6.589,52.72,90,100,13.76,FO,1659460224
502,Birao,10.2849,22.7882,74.75,86,59,2.64,CF,1659460225
503,Taltal,-25.4,-70.4833,58.48,73,28,5.01,CL,1659460226
504,Goderich,43.7501,-81.7165,67.91,74,98,12.17,CA,1659459608
505,Seybaplaya,19.65,-90.6667,87.26,54,22,1.03,MX,1659460226
506,Omsukchan,62.5333,155.8,47.61,97,100,7.52,RU,1659460226
507,Allāpalli,19.4167,80.0667,79.52,89,99,1.14,IN,1659460227
508,San Jose,37.3394,-121.895,85.91,55,75,1.01,US,1659460135
509,Palmerston,-12.486,130.9833,71.58,91,52,2.3,AU,1659459854
510,Shache,38.4167,77.2406,85.71,25,100,5.1,CN,1659460012
511,Ellensburg,46.9965,-120.5479,81.57,30,0,19.57,US,1659460227
512,Tofield,53.3668,-112.6686,57.61,92,100,15.95,CA,1659460228
513,Bodden Town,19.2833,-81.25,91.4,75,40,13.8,KY,1659460228
514,Dingle,10.9995,122.6711,76.68,87,90,4.07,PH,1659460228
515,Antofagasta,-23.65,-70.4,60.08,66,46,6.87,CL,1659460229
516,Safi,32.2994,-9.2372,78.93,69,0,22.48,MA,1659460229
517,Lynn Haven,30.2455,-85.6483,91.04,73,75,8.05,US,1659460229
518,Zhezkazgan,47.8043,67.7144,78.12,37,97,16.11,KZ,1659460229
519,Honningsvåg,70.9821,25.9704,55.15,82,20,6.91,NO,1659460230
520,Hobyo,5.3505,48.5268,76.37,80,3,26.49,SO,1659460230
521,São Gabriel da Cachoeira,-0.1303,-67.0892,81.95,84,92,2.33,BR,1659460230
522,Noumea,-22.2763,166.4572,73.0,99,68,4.0,NC,1659460231
523,Dawlatabad,36.4141,64.9053,86.77,23,11,7.09,AF,1659460231
524,Anadyr,64.75,177.4833,50.49,81,48,5.59,RU,1659460231
525,Vao,-22.6667,167.4833,73.63,86,49,11.18,NC,1659460231
526,Canutama,-6.5339,-64.3831,95.74,37,100,4.05,BR,1659460232
527,Sawākin,19.1059,37.3321,93.83,44,100,26.37,SD,1659459699
528,Andenes,69.3143,16.1194,53.58,82,40,9.22,NO,1659460232
529,Jardim,-21.4803,-56.1381,93.52,19,1,9.17,BR,1659460232
530,Almeirim,-1.5233,-52.5817,90.91,48,13,5.57,BR,1659459769
531,Macroom,51.9,-8.95,66.13,76,100,15.79,IE,1659460233
532,Port Macquarie,-31.4333,152.9167,44.89,100,96,0.0,AU,1659460233
533,Hailar,49.2,119.7,67.89,77,59,8.59,CN,1659460233
534,Cayenne,4.9333,-52.3333,89.64,17,75,8.05,GF,1659460234
535,Ulety,51.3572,112.4849,62.13,90,90,3.94,RU,1659460234
536,Dongsheng,39.8161,109.9776,76.82,48,62,14.99,CN,1659459929
537,Lata,40.1629,-8.3327,85.24,40,0,7.78,PT,1659460234
538,Baghdad,33.3406,44.4009,102.11,18,0,8.05,IQ,1659459993
539,Makkah al Mukarramah,21.4267,39.8261,86.22,57,100,17.4,SA,1659460235
540,Mandiana,10.6333,-8.6833,80.29,75,57,5.99,GN,1659460235
541,Hilton Head,32.2163,-80.7526,93.99,59,0,11.5,US,1659460173
542,Porto-Novo,6.4965,2.6036,77.31,68,91,9.4,BJ,1659460235
543,Amoy,24.4798,118.0819,80.56,82,98,1.77,CN,1659460077
544,Takāb,36.4009,47.1133,79.18,20,53,8.7,IR,1659460236
545,Oddur,4.1213,43.8894,79.32,50,92,20.67,SO,1659460236
546,Jutaí,-5.1833,-68.9,84.79,80,86,2.1,BR,1659460236
547,Ugoofaaru,5.6667,73.0,80.56,78,82,22.62,MV,1659460236
548,Deputatsky,69.3,139.9,44.49,87,100,4.03,RU,1659460237
549,Half Moon Bay,37.4636,-122.4286,81.14,64,20,4.61,US,1659460237
550,Hokitika,-42.7167,170.9667,52.79,88,75,13.76,NZ,1659460107
551,Saint-Joseph,-21.3667,55.6167,68.38,80,25,8.93,RE,1659460237
552,Mailsi,29.8003,72.1758,94.26,48,53,8.1,PK,1659460238
