City_ID,City,Lat,Lng,Max Temp,Humidity,Cloudiness,Wind Speed,Country,Date
0,Faanui,-16.4833,-151.75,78.85,74,16,27.02,PF,1659015519
1,Øksfjord,70.2396,22.3479,55.47,83,96,8.25,NO,1659015519
2,Padang,-0.9492,100.3543,79.02,87,85,4.05,ID,1659015519
3,Nikolskoye,59.7035,30.7861,71.49,56,94,6.82,RU,1659015519
4,Vaini,-21.2,-175.2,73.56,94,75,5.75,TO,1659015520
5,Lagoa,39.05,-27.9833,71.94,79,8,5.39,PT,1659015520
6,Ngunguru,-35.6167,174.5,50.85,84,2,9.55,NZ,1659015520
7,Barrow,71.2906,-156.7887,33.06,97,100,12.66,US,1659015521
8,Ati,13.2154,18.3353,89.87,44,100,9.01,TD,1659015521
9,Albany,42.6001,-73.9662,80.28,70,6,3.22,US,1659015521
10,Ushuaia,-54.8,-68.3,44.26,65,100,10.36,AR,1659015521
11,Afuá,-0.1567,-50.3867,86.45,59,6,4.61,BR,1659015522
12,Yulara,-25.2406,130.9889,51.66,24,100,9.57,AU,1659015522
13,Rikitea,-23.1203,-134.9692,73.44,65,0,20.54,PF,1659015522
14,Gladstone,-23.85,151.25,53.53,82,1,5.75,AU,1659015523
15,Hobart,-42.8794,147.3294,44.46,80,100,5.75,AU,1659015523
16,Ribeira Grande,38.5167,-28.7,79.2,61,20,10.36,PT,1659015523
17,Óbidos,-1.9175,-55.5181,87.71,53,47,4.9,BR,1659015515
18,Mar del Plata,-38.0023,-57.5575,48.22,95,75,18.41,AR,1659015352
19,Bluff,-46.6,168.3333,47.8,77,100,10.74,NZ,1659015524
20,Vila Franca do Campo,37.7167,-25.4333,81.19,65,0,3.6,PT,1659015524
21,Majholi,23.5,79.9167,79.84,89,100,6.6,IN,1659015524
22,Pontianak,-0.0333,109.3333,80.58,88,40,3.44,ID,1659015524
23,Buala,-8.145,159.5921,79.41,83,41,8.28,SB,1659015525
24,Port Alfred,-33.5906,26.891,69.19,76,12,8.01,ZA,1659015525
25,Hithadhoo,-0.6,73.0833,81.59,77,99,12.77,MV,1659015525
26,Thompson,55.7435,-97.8558,57.36,77,20,2.3,CA,1659015526
27,Solnechnyy,50.7214,136.6319,67.17,93,100,2.82,RU,1659015526
28,Ust'-Koksa,50.2696,85.6108,65.08,60,80,0.63,RU,1659015526
29,Arraial do Cabo,-22.9661,-42.0278,80.56,57,0,9.22,BR,1659015526
30,Touros,-5.1989,-35.4608,82.42,65,20,16.04,BR,1659015230
31,Hermanus,-34.4187,19.2345,69.8,61,0,5.48,ZA,1659015527
32,Muravlenko,63.7898,74.523,70.43,49,16,12.68,RU,1659015527
33,Cabo San Lucas,22.8909,-109.9124,80.51,75,16,4.59,MX,1659015527
34,Lockhart,28.6194,-81.4426,85.08,71,0,9.22,US,1659015528
35,Hofn,64.2539,-15.2082,51.82,93,100,5.75,IS,1659015528
36,Saint-Philippe,-21.3585,55.7679,74.79,78,52,8.88,RE,1659015528
37,Geraldton,-28.7667,114.6,59.41,88,95,9.22,AU,1659015529
38,Clyde River,70.4692,-68.5914,37.63,100,100,12.66,CA,1659015529
39,Portland,45.5234,-122.6762,68.86,80,20,4.61,US,1659015322
40,Busselton,-33.65,115.3333,62.6,82,18,16.6,AU,1659015530
41,Dikson,73.5069,80.5464,43.86,96,100,15.28,RU,1659015530
42,Kaitangata,-46.2817,169.8464,43.83,92,100,8.81,NZ,1659015530
43,Nanortalik,60.1432,-45.2371,44.76,80,15,8.5,GL,1659015531
44,Laas,46.6166,10.7002,77.68,81,88,5.5,IT,1659015531
45,Zabul Province,32.25,67.25,74.07,66,100,10.89,AF,1659015531
46,Punta Arenas,-53.15,-70.9167,39.31,87,75,17.27,CL,1659015318
47,Torbay,47.6666,-52.7314,73.89,76,40,4.61,CA,1659015532
48,Butaritari,3.0707,172.7902,81.93,73,100,15.61,KI,1659015532
49,Nizwá,22.9333,57.5333,87.3,54,29,10.76,OM,1659015532
50,Salalah,17.0151,54.0924,78.89,89,75,11.5,OM,1659015527
51,Carnarvon,-24.8667,113.6333,70.52,59,100,8.03,AU,1659015533
52,New Norfolk,-42.7826,147.0587,44.1,82,68,1.99,AU,1659015533
53,San Cristobal,7.7669,-72.225,68.18,69,90,5.35,VE,1659015533
54,Iqaluit,63.7506,-68.5145,49.73,76,100,2.3,CA,1659015534
55,Te Anau,-45.4167,167.7167,41.11,98,100,1.32,NZ,1659015534
56,Garissa,-0.4536,39.6401,87.15,37,76,19.98,KE,1659015534
57,Mataura,-46.1927,168.8643,47.48,98,100,2.77,NZ,1659015534
58,Cape Town,-33.9258,18.4232,70.21,48,0,16.11,ZA,1659015398
59,Kaminokawa,36.4333,139.9167,78.1,90,100,3.24,JP,1659015535
60,La Puebla de Cazalla,37.2216,-5.3115,94.01,20,0,7.47,ES,1659015535
61,Acapulco de Juárez,16.8634,-99.8901,76.82,88,75,0.0,MX,1659015510
62,Talnakh,69.4865,88.3972,61.21,56,11,11.39,RU,1659015535
63,Hilo,19.7297,-155.09,76.28,88,20,5.75,US,1659015290
64,Atuona,-9.8,-139.0333,76.77,75,60,24.07,PF,1659015536
65,Bethel,41.3712,-73.414,81.48,81,75,4.61,US,1659015536
66,Jamestown,42.097,-79.2353,77.02,74,100,12.66,US,1659015536
67,Biak,-0.9131,122.8766,75.24,87,86,6.11,ID,1659015537
68,Bredasdorp,-34.5322,20.0403,71.83,44,0,7.58,ZA,1659015537
69,Terre Haute,39.4667,-87.4139,75.47,89,20,3.44,US,1659015537
70,Calmar,53.2668,-113.8187,67.55,88,40,5.75,CA,1659015537
71,Corowa,-36.0333,146.3833,41.41,91,8,6.98,AU,1659015538
72,Narsaq,60.9167,-46.05,55.62,54,8,6.91,GL,1659015538
73,Cherskiy,68.75,161.3,46.33,64,100,6.42,RU,1659015538
74,Río Gallegos,-51.6226,-69.2181,41.05,60,100,24.16,AR,1659015539
75,Mossamedes,-15.1961,12.1522,74.03,68,40,5.75,AO,1659015539
76,Sofia,42.6975,23.3242,82.09,51,40,8.05,BG,1659015539
77,Humenné,48.9371,21.9163,87.55,40,12,6.49,SK,1659015539
78,Mansfield,53.1333,-1.2,72.0,65,100,3.0,GB,1659015540
79,Keşan,40.8558,26.6303,93.87,22,0,20.6,TR,1659015540
80,Saint Paul Harbor,57.79,-152.4072,51.31,62,0,5.75,US,1659015540
81,Avarua,-21.2078,-159.775,73.45,94,75,14.97,CK,1659015541
82,Lebu,-37.6167,-73.65,49.78,79,0,7.27,CL,1659015541
83,Port Lincoln,-34.7333,135.8667,53.87,81,99,14.32,AU,1659015541
84,Havre-St-Pierre,50.2334,-63.5986,62.96,77,100,11.5,CA,1659015541
85,Kavieng,-2.5744,150.7967,82.92,77,99,18.77,PG,1659015542
86,Chui,-33.6971,-53.4616,54.52,95,100,12.39,UY,1659015542
87,Port-Gentil,-0.7193,8.7815,82.36,65,40,11.5,GA,1659015542
88,Pevek,69.7008,170.3133,39.85,77,93,5.75,RU,1659015543
89,Hong Kong,22.2855,114.1577,89.38,77,97,11.01,HK,1659015526
90,Porto-Novo,6.4965,2.6036,80.42,64,100,15.19,BJ,1659015543
91,Morant Bay,17.8815,-76.4093,83.71,78,2,7.09,JM,1659015543
92,Belmonte,-15.8631,-38.8828,74.73,66,66,3.4,BR,1659015544
93,Iquique,-20.2208,-70.1431,59.04,69,6,5.77,CL,1659015544
94,Saskylakh,71.9167,114.0833,67.75,54,100,3.74,RU,1659015532
95,Yuncheng,35.0231,110.9928,79.18,58,0,5.66,CN,1659015544
96,Rocha,-34.4833,-54.3333,51.82,95,100,13.8,UY,1659015545
97,Belaya Gora,68.5333,146.4167,47.05,60,25,9.82,RU,1659015545
98,São Filipe,14.8961,-24.4956,80.15,81,53,8.68,CV,1659015545
99,Bud,39.447,-86.1758,77.76,86,100,4.52,US,1659015546
100,Kuusamo,65.9667,29.1833,57.24,72,100,8.05,FI,1659015546
101,Broome,42.2506,-75.833,79.09,80,46,5.99,US,1659015546
102,Newark,40.7357,-74.1724,83.44,82,75,8.05,US,1659015476
103,Kahului,20.8947,-156.47,76.84,69,0,11.5,US,1659015540
104,Windhoek,-22.5594,17.0832,75.69,16,0,16.11,NA,1659015547
105,Arlit,18.7369,7.3853,103.37,20,88,10.11,NE,1659015547
106,Paita,-5.0892,-81.1144,65.68,78,63,12.68,PE,1659015547
107,Upernavik,72.7868,-56.1549,41.56,82,100,1.28,GL,1659015548
108,Noumea,-22.2763,166.4572,60.78,77,1,5.01,NC,1659015548
109,Qaanaaq,77.484,-69.3632,38.68,72,12,0.85,GL,1659015548
110,Souillac,-20.5167,57.5167,71.98,73,40,10.36,MU,1659015549
111,Athabasca,54.7169,-113.2854,59.41,80,0,6.26,CA,1659015549
112,Puerto Ayora,-0.7393,-90.3518,70.61,88,100,11.9,EC,1659015549
113,South Valley,35.0101,-106.6781,73.83,63,75,8.05,US,1659015334
114,Vestmannaeyjar,63.4427,-20.2734,52.79,76,75,13.8,IS,1659015549
115,Alyangula,-13.8483,136.4192,68.88,88,98,11.52,AU,1659015550
116,Pacific Grove,36.6177,-121.9166,55.69,96,100,8.99,US,1659015550
117,George Town,5.4112,100.3354,85.95,89,40,5.01,MY,1659015550
118,Lorengau,-2.0226,147.2712,81.48,79,71,9.22,PG,1659015551
119,Pucallpa,-8.3791,-74.5539,77.04,94,20,2.3,PE,1659015551
120,Vorontsovka,50.6132,40.3549,80.58,54,95,6.87,RU,1659015551
121,Wanning,18.8003,110.3967,82.02,80,1,5.95,CN,1659015552
122,Saint Anthony,45.0205,-93.218,65.21,77,0,14.97,US,1659015552
123,Kaeo,-35.1,173.7833,45.32,93,4,6.85,NZ,1659015552
124,Bengkulu,-3.8004,102.2655,79.16,83,87,2.75,ID,1659015553
125,Galiākot,23.5167,74.0,85.46,68,63,7.61,IN,1659015553
126,Sémbé,1.6481,14.5806,79.39,69,100,3.27,CG,1659015553
127,Domoni,-12.2569,44.5319,76.28,73,49,9.55,KM,1659015553
128,Kapaa,22.0752,-159.319,73.72,93,75,5.75,US,1659015554
129,Bafia,4.75,11.2333,76.55,88,66,7.74,CM,1659015265
130,The Valley,18.217,-63.0578,86.09,65,20,17.27,AI,1659015554
131,Tiksi,71.6872,128.8694,56.59,98,100,5.61,RU,1659015554
132,Goderich,43.7501,-81.7165,71.92,88,3,9.22,CA,1659015555
133,Ilulissat,69.2167,-51.1,46.42,71,20,3.44,GL,1659015555
134,Calvià,39.5657,2.5062,92.41,55,0,7.34,ES,1659015555
135,Deputatsky,69.3,139.9,50.7,52,95,4.14,RU,1659015556
136,Saint George,37.1041,-113.5841,74.95,83,0,4.61,US,1659015557
137,Klaksvík,62.2266,-6.589,56.32,82,93,18.16,FO,1659015557
138,San Miguel,13.4833,-88.1833,76.66,100,40,2.3,SV,1659015557
139,Dingle,10.9995,122.6711,78.06,88,100,5.73,PH,1659015558
140,Alanya,36.5438,31.9998,87.93,50,0,4.88,TR,1659015558
141,Baoshan,46.5586,131.4244,72.55,92,89,5.73,CN,1659015559
142,Diffa,13.3154,12.6113,91.89,41,100,2.19,NE,1659015559
143,Lamar,33.6668,-95.5836,85.98,69,0,11.5,US,1659015559
144,Rosario,-32.9468,-60.6393,51.82,80,0,14.97,AR,1659015305
145,Marsá Maţrūḩ,31.3525,27.2453,88.0,55,0,12.66,EG,1659015560
146,Fort Nelson,58.8053,-122.7002,60.39,94,75,2.3,CA,1659015560
147,Namatanai,-3.6667,152.4333,79.75,79,86,10.74,PG,1659015560
148,Tuktoyaktuk,69.4541,-133.0374,46.4,87,100,10.36,CA,1659015561
149,Walvis Bay,-22.9575,14.5053,57.09,66,3,13.47,NA,1659015561
150,Eenhana,-17.4667,16.3333,85.41,13,32,3.49,NA,1659015561
151,Warrnambool,-38.3833,142.4833,47.14,76,6,7.65,AU,1659015562
152,Colon,8.0313,-72.2605,69.39,62,88,1.77,VE,1659015562
153,Bayjī,34.9311,43.487,110.53,5,0,17.0,IQ,1659015562
154,Davila,18.4726,120.5763,83.12,77,99,4.25,PH,1659015563
155,Tiznit Province,29.5833,-9.5,86.32,37,0,9.93,MA,1659015563
156,Aksarka,66.5606,67.7975,76.3,44,55,5.66,RU,1659015563
157,Pangnirtung,66.1451,-65.7125,51.8,93,100,5.75,CA,1659015563
158,Aykhal,66.0,111.5,75.42,64,3,5.91,RU,1659015564
159,Khatanga,71.9667,102.5,68.32,51,47,7.65,RU,1659015526
160,Tyrma,50.0833,132.1667,69.49,90,95,1.61,RU,1659015564
161,Tura,25.5198,90.2201,75.06,93,87,2.91,IN,1659015564
162,Aitape,-3.1374,142.3475,78.49,88,36,7.23,PG,1659015565
163,Port Elizabeth,-33.918,25.5701,76.1,75,0,12.66,ZA,1659015565
164,Vestmanna,62.1564,-7.1664,54.52,88,100,13.8,FO,1659015565
165,Bonthe,7.5264,-12.505,79.07,78,98,13.76,SL,1659015566
166,Tigil',57.8,158.6667,43.99,86,52,2.98,RU,1659015566
167,Nome,64.5011,-165.4064,41.07,93,0,3.44,US,1659015566
168,Plettenberg Bay,-34.0527,23.3716,70.61,54,0,4.63,ZA,1659015567
169,Gumdag,39.2061,54.5906,92.61,42,85,16.49,TM,1659015567
170,Shelburne,44.0787,-80.2041,70.25,94,0,11.43,CA,1659015567
171,Airai,-8.9266,125.4092,54.34,87,39,4.38,TL,1659015567
172,Huarmey,-10.0681,-78.1522,63.36,82,58,7.47,PE,1659015568
173,Karratha,-20.7377,116.8463,70.75,70,1,4.16,AU,1659015568
174,Abrau-Dyurso,44.69,37.59,85.46,52,11,10.07,RU,1659015568
175,Waterloo,43.4668,-80.5164,77.59,77,0,9.22,CA,1659015569
176,Husavik,66.0449,-17.3389,59.38,53,6,11.32,IS,1659015569
177,Yumen,40.2833,97.2,86.36,14,40,10.58,CN,1659015569
178,Penzance,50.1186,-5.5371,69.12,60,20,9.22,GB,1659015303
179,Talalayivka,50.9578,31.9209,76.8,38,67,11.18,UA,1659015570
180,Parczew,51.6402,22.9006,75.81,33,52,7.87,PL,1659015570
181,Tual,-5.6667,132.75,78.75,87,47,22.17,ID,1659015570
182,Maragogi,-9.0122,-35.2225,77.7,79,52,10.29,BR,1659015570
183,Formosa,-26.1775,-58.1781,75.18,60,0,11.5,AR,1659015571
184,Korla,41.7597,86.1469,95.29,13,48,3.15,CN,1659015571
185,Prado,-17.3411,-39.2208,76.68,61,18,4.47,BR,1659015572
186,Djibo,14.1022,-1.6306,94.86,38,100,14.52,BF,1659015572
187,Leningradskiy,69.3833,178.4167,33.66,90,99,4.18,RU,1659015572
188,Qui Nhon,13.7667,109.2333,81.57,84,94,5.5,VN,1659015572
189,Tarnogskiy Gorodok,60.4997,43.5761,80.62,57,61,10.47,RU,1659015573
190,Vitória da Conquista,-14.8661,-40.8394,72.55,49,42,4.52,BR,1659015413
191,Mahébourg,-20.4081,57.7,72.25,73,40,10.36,MU,1659015574
192,Vila Velha,-20.3297,-40.2925,78.75,65,0,11.5,BR,1659015574
193,Havelock,34.8791,-76.9013,87.94,79,40,11.5,US,1659015575
194,Esperance,-33.8667,121.9,59.32,52,37,10.49,AU,1659015575
195,Tasiilaq,65.6145,-37.6368,42.96,90,100,5.91,GL,1659015575
196,Camacha,33.0833,-16.3333,72.82,73,75,14.97,PT,1659015290
197,Nantucket,41.2835,-70.0995,80.71,83,0,8.05,US,1659015575
198,Gornopravdinsk,60.05,69.9,66.63,58,100,8.84,RU,1659015576
199,Tautira,-17.7333,-149.15,77.59,72,21,24.74,PF,1659015576
200,Shingū,33.7333,135.9833,78.28,92,53,4.72,JP,1659015485
201,Kaseda-shirakame,31.4167,130.3167,80.37,82,97,14.79,JP,1659015576
202,Vanavara,60.34,102.2797,63.14,95,100,5.19,RU,1659015577
203,Olafsvik,64.8945,-23.7142,49.15,82,100,12.24,IS,1659015577
204,São José da Coroa Grande,-8.8978,-35.1478,77.85,78,46,9.75,BR,1659015577
205,Pokhara,28.2333,83.9833,72.81,91,83,3.11,NP,1659015578
206,Sambava,-14.2667,50.1667,73.6,78,73,9.86,MG,1659015578
207,Constitución,-35.3333,-72.4167,51.94,67,0,7.63,CL,1659015578
208,Sydney Mines,46.2367,-60.2177,75.0,74,40,9.22,CA,1659015578
209,Bumba,2.1833,22.4667,78.75,78,84,4.59,CD,1659015579
210,Bikaner,28.0167,73.3,90.23,57,96,8.48,IN,1659015579
211,Yar-Sale,66.8333,70.8333,71.92,57,97,3.04,RU,1659015579
212,Aklavik,68.2191,-135.0107,48.2,87,100,6.91,CA,1659015580
213,Nchelenge,-9.3451,28.734,79.18,38,91,8.59,ZM,1659015580
214,Mathathane,-22.2687,28.7495,75.13,23,0,16.71,BW,1659015580
215,Stykkisholmur,65.0757,-22.7297,50.92,80,100,10.36,IS,1659015580
216,Solt,46.8007,18.9999,81.95,31,99,0.69,HU,1659015581
217,Ketchikan,55.3422,-131.6461,59.47,82,0,6.91,US,1659015581
218,Marawi,7.9986,124.2928,70.23,92,100,4.5,PH,1659015581
219,Ossora,59.2353,163.0719,49.62,81,94,3.49,RU,1659015582
220,Yellowknife,62.456,-114.3525,61.32,77,75,8.05,CA,1659015582
221,Chilca,-12.5211,-76.7372,62.02,78,86,3.56,PE,1659015582
222,Halifax,44.6453,-63.5724,80.53,64,20,3.0,CA,1659015374
223,Comodoro Rivadavia,-45.8667,-67.5,48.06,43,0,16.11,AR,1659015534
224,Barra de Tecoanapa,16.5167,-98.75,75.42,85,100,4.03,MX,1659015583
225,Cabedelo,-6.9811,-34.8339,81.27,72,30,15.59,BR,1659015583
226,Venustiano Carranza,19.43,-99.0992,59.09,87,75,4.61,MX,1659015583
227,Progreso,21.2833,-89.6667,79.11,76,97,8.25,MX,1659015583
228,Noril'sk,69.3535,88.2027,61.43,57,9,11.56,RU,1659015584
229,Valparaíso,-33.0393,-71.6273,52.03,81,0,9.22,CL,1659015455
230,Yichang,30.7144,111.2847,79.34,90,0,3.22,CN,1659015584
231,Urucará,-2.5364,-57.76,89.53,50,68,1.81,BR,1659015584
232,Turukhansk,65.8167,87.9833,64.83,60,81,13.35,RU,1659015585
233,Pisco,-13.7,-76.2167,60.85,82,100,6.91,PE,1659015585
234,Provideniya,64.3833,-173.3,46.74,95,100,2.39,RU,1659015585
235,Coquimbo,-29.9533,-71.3436,53.33,93,20,3.44,CL,1659015585
236,Jalu,29.0331,21.5482,101.59,14,0,10.22,LY,1659015562
237,Atambua,-9.1061,124.8925,69.08,82,20,7.47,ID,1659015586
238,Menongue,-14.6585,17.691,82.96,9,91,6.49,AO,1659015586
239,Cananéia,-25.0147,-47.9267,77.7,56,60,4.72,BR,1659015586
240,Katsuura,35.1333,140.3,80.06,91,100,14.52,JP,1659015587
241,Saldanha,-33.0117,17.9442,75.25,63,0,13.11,ZA,1659015587
242,Los Llanos de Aridane,28.6585,-17.9182,75.13,77,20,20.71,ES,1659015587
243,Rioblanco,3.5308,-75.6806,61.99,91,100,1.03,CO,1659015587
244,Argelia,2.2556,-77.2488,70.29,84,83,2.26,CO,1659015588
245,Ponta do Sol,32.6667,-17.1,80.71,70,0,0.96,PT,1659015588
246,Kathmandu,27.7167,85.3167,73.62,83,75,8.05,NP,1659015588
247,Poum,-20.2333,164.0167,72.52,68,72,7.02,NC,1659015589
248,Flinders,-34.5833,150.8552,54.18,83,100,5.01,AU,1659015589
249,Mount Isa,-20.7333,139.5,58.77,31,0,6.91,AU,1659015589
250,Gamba,-2.65,10.0,74.08,73,100,7.25,GA,1659015589
251,Lüderitz,-26.6481,15.1594,58.28,76,6,5.61,NA,1659015590
252,Rottenmann,47.5167,14.35,81.43,47,21,7.16,AT,1659015590
253,Tagbac,7.089,125.1567,72.34,95,97,0.83,PH,1659015590
254,Bairiki Village,1.3292,172.9752,80.6,83,20,8.05,KI,1659015590
255,Santa Maria do Suaçuí,-18.1903,-42.4142,76.03,44,0,3.91,BR,1659015591
256,Amahai,-3.3333,128.9167,76.86,91,97,7.56,ID,1659015591
257,Sørland,67.667,12.6934,53.46,66,100,6.91,NO,1659015591
258,Uttaradit,17.6667,100.5,75.16,87,6,2.86,TH,1659015592
259,Almuñécar,36.7339,-3.6907,104.52,64,21,0.72,ES,1659015592
260,Itaituba,-4.2761,-55.9836,87.96,70,0,0.0,BR,1659015592
261,Severo-Kuril'sk,50.6789,156.125,51.84,92,5,6.96,RU,1659015592
262,Vieques,18.425,-65.8329,86.67,74,40,14.97,PR,1659015593
263,Abu Dhabi,24.4667,54.3667,98.71,64,0,12.66,AE,1659015444
264,San Rafael del Sur,11.8485,-86.4384,76.17,71,31,10.29,NI,1659015593
265,Abdulino,53.7,53.6667,72.66,54,7,10.8,RU,1659015593
266,Kargasok,59.0556,80.8572,65.17,71,99,8.95,RU,1659015594
267,Gaya,24.7833,85.0,78.71,94,75,4.61,IN,1659015594
268,Salym,60.0625,71.4789,64.71,62,100,6.13,RU,1659015594
269,Kiruna,67.8557,20.2251,50.92,71,0,10.36,SE,1659015594
270,Gijang,35.2442,129.2139,82.13,95,1,7.83,KR,1659015595
271,Bagn,60.8225,9.5521,68.11,42,88,5.3,NO,1659015595
272,Port Macquarie,-31.4333,152.9167,46.89,81,14,5.93,AU,1659015595
273,La Ronge,55.1001,-105.2842,59.25,72,40,5.75,CA,1659015596
274,Mayo,38.8876,-76.5119,84.76,83,0,0.0,US,1659015596
275,Cherëmukhovo,60.3484,59.9851,72.61,52,1,3.02,RU,1659015596
276,Ahipara,-35.1667,173.1667,55.35,76,33,11.14,NZ,1659015563
277,Tabriz,38.08,46.2919,94.46,17,40,11.5,IR,1659015597
278,Tatarskaya Pishlya,54.0608,44.8998,81.18,51,22,4.43,RU,1659015597
279,Turbat,26.0023,63.044,86.34,67,100,13.31,PK,1659015597
280,Sexsmith,55.35,-118.786,61.95,67,20,4.61,CA,1659015598
281,Kolondiéba,11.0882,-6.8926,87.82,52,79,7.09,ML,1659015598
282,Clarence Town,-32.5833,151.7833,54.81,73,100,3.29,AU,1659015598
283,Castro,-24.7911,-50.0119,72.19,46,67,10.07,BR,1659015599
284,Kenai,60.5544,-151.2583,53.15,97,0,3.44,US,1659015599
285,Tecolutla,20.4833,-97.0167,76.86,83,19,5.66,MX,1659015599
286,Vao,-22.6667,167.4833,69.19,69,0,9.95,NC,1659015599
287,Altay,47.8667,88.1167,75.4,28,85,7.67,CN,1659015600
288,Coyhaique,-45.5752,-72.0662,42.75,61,75,5.75,CL,1659015489
289,Nelson Bay,-32.7167,152.15,54.0,82,100,7.0,AU,1659015434
290,Carutapera,-1.195,-46.02,83.62,73,44,5.99,BR,1659015600
291,‘Āhuimanu,21.4447,-157.8378,76.71,79,75,5.75,US,1659015601
292,Vostok,46.4856,135.8833,67.01,87,100,3.83,RU,1659015601
293,Lao Cai,22.4833,103.95,80.35,85,100,1.97,VN,1659015601
294,Slave Lake,55.2834,-114.769,60.78,94,0,8.05,CA,1659015465
295,Esim,4.8699,-2.2405,80.06,68,57,12.57,GH,1659015601
296,Antalaha,-14.9003,50.2788,73.26,79,35,9.28,MG,1659015602
297,Kirtipur,27.6667,85.2833,73.33,83,75,8.05,NP,1659015602
298,Parkes,-33.1333,148.1833,49.35,79,100,3.36,AU,1659015602
299,Chernolesskoye,44.7156,43.7133,87.64,29,1,5.53,RU,1659015603
300,Litovko,49.2361,135.1742,71.62,93,97,3.24,RU,1659015603
301,Kalabo,-14.97,22.6814,83.23,15,52,5.28,ZM,1659015603
302,Cam Ranh,11.9214,109.1591,84.16,74,20,3.44,VN,1659015604
303,Baykit,61.67,96.37,65.53,92,82,3.98,RU,1659015604
304,Marystown,47.1666,-55.1483,69.85,100,57,2.57,CA,1659015604
305,Kruisfontein,-34.0033,24.7314,73.89,46,0,5.26,ZA,1659015605
306,Usinsk,65.9939,57.5281,77.7,38,29,13.33,RU,1659015605
307,Scarborough,54.2797,-0.4044,67.57,70,100,7.0,GB,1659015605
308,Oranjestad,12.524,-70.027,84.15,70,20,18.41,AW,1659015606
309,Brae,60.3964,-1.353,58.48,70,96,8.37,GB,1659015606
310,Bariloche,-41.1456,-71.3082,40.75,65,20,18.41,AR,1659015606
311,Darhan,49.4867,105.9228,55.47,77,3,0.67,MN,1659015456
312,Chokurdakh,70.6333,147.9167,47.19,56,76,10.16,RU,1659015607
313,Kosa,59.9445,54.9977,73.74,54,59,2.51,RU,1659015607
314,Ingleside,27.8778,-97.2117,87.03,79,0,10.36,US,1659015447
315,Quatre Cocos,-20.2078,57.7625,72.09,74,13,9.82,MU,1659015525
316,Hambantota,6.1241,81.1185,79.14,100,75,1.14,LK,1659015607
317,Nueva Guinea,11.6876,-84.4562,75.63,91,47,6.42,NI,1659015608
318,Oxelösund,58.6706,17.1015,69.89,40,0,6.91,SE,1659015608
319,Kloulklubed,7.0419,134.2556,75.7,72,100,8.77,PW,1659015608
320,Bambous Virieux,-20.3428,57.7575,72.21,73,40,10.36,MU,1659015608
321,Anjār,23.1333,70.0167,86.22,62,89,16.53,IN,1659015609
322,Henties Bay,-22.116,14.2845,59.18,73,4,10.92,NA,1659015609
323,Maniitsoq,65.4167,-52.9,40.84,88,100,3.36,GL,1659015609
324,Sikasso,10.9167,-7.0,87.21,53,91,6.91,ML,1659015610
325,Gushikawa,26.3544,127.8686,83.79,83,20,14.97,JP,1659015611
326,La Fria,8.2203,-72.2439,77.11,68,69,2.3,VE,1659015611
327,Lompoc,34.6391,-120.4579,57.6,90,100,10.0,US,1659015612
328,Launceston,-41.45,147.1667,40.15,87,40,6.91,AU,1659015612
329,Muros,42.7762,-9.0603,75.09,61,78,9.71,ES,1659015613
330,Bubaque,11.2833,-15.8333,80.49,78,68,11.21,GW,1659015613
331,Dunn,44.95,-91.8835,64.53,77,40,11.5,US,1659015614
332,Tuatapere,-46.1333,167.6833,43.16,92,100,4.34,NZ,1659015614
333,Ramnagar,29.4,79.1167,82.85,68,100,4.68,IN,1659015615
334,Richmond,37.5538,-77.4603,85.19,79,75,5.75,US,1659015464
335,Vigeland,58.0844,7.305,69.89,69,6,11.77,NO,1659015615
336,Sisimiut,66.9395,-53.6735,43.65,80,100,6.22,GL,1659015616
337,Pedernales,18.0384,-71.744,83.82,59,68,1.72,DO,1659015616
338,Norman Wells,65.282,-126.8329,46.44,93,20,0.0,CA,1659015617
339,Ilhabela,-23.7781,-45.3581,80.04,46,33,2.08,BR,1659015420
340,Fare,-16.7,-151.0167,78.37,75,14,25.81,PF,1659015617
341,Caiapônia,-16.9567,-51.8103,82.09,21,0,8.08,BR,1659015618
342,Banyo,6.75,11.8167,73.87,83,95,1.88,CM,1659015618
343,Amazar,53.858,120.875,63.23,96,100,0.54,RU,1659015535
344,Coxim,-18.5067,-54.76,87.82,20,0,6.15,BR,1659015618
345,Eyl,7.9803,49.8164,82.24,60,80,26.71,SO,1659015619
346,Dongning,44.0622,131.1207,68.63,93,100,3.31,CN,1659015619
347,Bonfim,3.0833,-59.95,81.77,74,31,3.94,BR,1659015619
348,Grand-Lahou,5.1367,-5.0242,79.81,66,24,12.03,CI,1659015620
349,East London,-33.0153,27.9116,68.94,73,0,19.57,ZA,1659015620
350,Jati,24.3539,68.2671,85.44,68,41,17.18,PK,1659015620
351,Bathsheba,13.2167,-59.5167,86.61,80,40,20.71,BB,1659015621
352,Qeshm,26.9581,56.2719,91.29,72,99,17.94,IR,1659015352
353,Krasnyy Chikoy,50.3643,108.7512,52.83,90,100,3.71,RU,1659015621
354,Ancud,-41.8697,-73.8203,44.87,87,90,0.4,CL,1659015547
355,Mokhsogollokh,61.4681,128.9203,69.71,67,5,0.34,RU,1659015621
356,Moshkovo,55.3053,83.6104,67.35,66,95,6.46,RU,1659015622
357,Kyzyl-Suu,42.3414,78.0056,70.39,57,96,3.27,KG,1659015622
358,Buraidah,26.326,43.975,109.85,8,100,8.23,SA,1659015622
359,Waipawa,-41.4122,175.5153,48.99,83,41,8.75,NZ,1659015622
360,Nara,34.6851,135.8049,84.49,63,88,3.29,JP,1659015613
361,Bourail,-21.5667,165.4833,64.36,81,1,4.36,NC,1659015623
362,Fort Dodge,42.4975,-94.168,69.82,88,0,3.44,US,1659015373
363,Labuhan,-6.8844,112.2051,79.25,77,55,9.06,ID,1659015623
364,Atar,20.5169,-13.0499,110.68,6,0,14.97,MR,1659015624
365,Gizo Government Station,-8.103,156.8419,81.01,77,18,5.5,SB,1659015624
366,Nanning,22.8167,108.3167,88.25,74,100,8.25,CN,1659015600
367,Yomou,7.5603,-9.2653,74.48,85,99,4.5,GN,1659015624
368,Boa Vista,2.8197,-60.6733,78.78,83,75,4.61,BR,1659015625
369,Macklin,52.3334,-109.9348,59.34,60,14,6.04,CA,1659015625
370,São João da Barra,-21.6403,-41.0511,77.09,58,0,10.38,BR,1659015594
371,Rome,43.2128,-75.4557,80.82,76,40,4.61,US,1659015625
372,Tomaszów Mazowiecki,51.5313,20.0086,77.27,42,100,4.56,PL,1659015625
373,Sabha,27.0377,14.4283,100.08,9,0,9.1,LY,1659015626
374,Megion,61.0296,76.1136,66.22,58,93,9.42,RU,1659015626
375,Itajubá,-22.4256,-45.4528,73.76,55,56,5.06,BR,1659015626
376,Reconquista,-29.15,-59.65,59.65,82,100,16.02,AR,1659015627
377,Sinnamary,5.3833,-52.95,83.77,66,70,4.36,GF,1659015627
378,Samarai,-10.6167,150.6667,78.3,85,88,15.48,PG,1659015627
379,Ormara,25.2088,64.6357,82.71,82,97,16.06,PK,1659015628
380,Las Vegas,36.175,-115.1372,80.67,70,0,6.91,US,1659015623
381,Tiruvannamalai,12.2167,79.0667,85.6,62,99,9.13,IN,1659015628
382,Cidreira,-30.1811,-50.2056,70.38,72,100,5.7,BR,1659015628
383,Tapiramutá,-11.8472,-40.7914,67.3,77,92,6.91,BR,1659015629
384,Andros,37.8333,24.9333,84.76,46,0,18.01,GR,1659015629
385,Kyshtovka,56.555,76.6271,67.48,87,100,9.53,RU,1659015629
386,Cody,44.5263,-109.0565,64.04,64,0,4.61,US,1659015629
387,Bonavista,48.6499,-53.1147,58.87,91,66,14.34,CA,1659015630
388,San Policarpo,12.1791,125.5072,80.78,85,100,7.4,PH,1659015630
389,Encruzilhada do Sul,-30.5439,-52.5219,66.07,83,100,7.65,BR,1659015630
390,Abu Kamal,34.4506,40.9171,107.73,8,0,10.33,SY,1659015631
391,Dongying,37.4564,118.4856,76.14,84,100,2.33,CN,1659015631
392,Puerto Madero,14.7208,-92.4215,75.4,100,75,0.0,MX,1659015631
393,Khonsa,27.0167,95.5667,69.19,99,30,2.37,IN,1659015631
394,Manta,-0.95,-80.7333,71.38,88,100,4.61,EC,1659015632
395,Sioux Lookout,50.1001,-91.917,55.47,88,100,9.22,CA,1659015461
396,Hamina,60.5697,27.1979,65.48,72,75,5.17,FI,1659015632
397,Ürümqi,43.801,87.6005,90.55,18,0,8.95,CN,1659015632
398,Santiago,-33.4569,-70.6483,53.29,90,20,2.3,CL,1659015506
399,Naliya,23.2667,68.8333,83.59,72,96,15.3,IN,1659015449
400,Teya,60.3778,92.6267,65.77,71,78,2.33,RU,1659015633
401,Betsiamites,48.9413,-68.646,73.8,76,50,4.0,CA,1659015633
402,Haines Junction,60.7522,-137.5108,48.15,93,100,0.0,CA,1659015633
403,Voka,59.3997,27.5817,63.45,77,55,9.95,EE,1659015634
404,Bandarbeyla,9.4942,50.8122,79.66,68,2,29.57,SO,1659015634
405,Abhā,18.2164,42.5053,82.22,39,40,6.91,SA,1659015634
406,Evensk,61.95,159.2333,53.02,63,100,4.03,RU,1659015635
407,Carberry,49.8689,-99.3602,57.43,79,87,10.56,CA,1659015635
408,Keti Bandar,24.1447,67.4497,83.46,79,81,16.69,PK,1659015635
409,Sitka,57.0531,-135.33,57.09,88,100,3.44,US,1659015635
410,Simao,22.7886,100.9748,68.67,87,100,1.19,CN,1659015636
411,Chake Chake,-5.2459,39.7666,77.92,68,68,9.42,TZ,1659015636
412,Skibbereen,51.55,-9.2667,63.1,87,100,9.69,IE,1659015636
413,Mandalgovi,45.7625,106.2708,63.37,53,71,17.34,MN,1659015632
414,Balikpapan,-1.2675,116.8289,77.99,100,40,3.44,ID,1659015637
415,Merauke,-8.4667,140.3333,77.07,83,100,18.07,ID,1659015637
416,Palmer,42.1584,-72.3287,80.24,83,75,1.01,US,1659015637
417,General Roca,-39.0333,-67.5833,52.03,39,1,13.73,AR,1659015638
418,Senec,48.2195,17.4004,89.1,33,0,3.44,SK,1659015638
419,Oranjemund,-28.55,16.4333,58.59,78,19,14.47,NA,1659015638
420,Quelimane,-17.8786,36.8883,75.15,53,75,6.91,MZ,1659015638
421,Cockburn Town,21.4612,-71.1419,81.34,73,0,20.42,TC,1659015417
422,Dombarovskiy,50.7587,59.5386,74.55,39,99,14.45,RU,1659015639
423,Longyearbyen,78.2186,15.6401,42.64,75,75,18.41,SJ,1659015624
424,Maţāy,28.419,30.7792,102.72,10,0,11.79,EG,1659015639
425,San Patricio,28.017,-97.5169,86.9,64,1,11.21,US,1659015640
426,Presidente Médici,-11.1753,-61.9014,90.05,27,80,3.78,BR,1659015640
427,Chu,43.5983,73.7614,92.7,18,79,12.46,KZ,1659015640
428,St. George's,12.0564,-61.7485,85.68,66,20,28.77,GD,1659015641
429,Swellendam,-34.0226,20.4417,73.85,29,0,11.74,ZA,1659015641
430,Luleå,65.5842,22.1547,62.67,55,0,9.22,SE,1659015641
431,Bereda,43.2686,-7.5406,85.41,60,56,5.44,ES,1659015642
432,Marzuq,14.4,46.4667,91.35,33,63,12.15,YE,1659015642
433,Volokonovka,50.4827,37.8563,79.23,57,99,8.88,RU,1659015642
434,Chumikan,54.7183,135.315,53.26,97,100,4.12,RU,1659015643
435,Margate,51.3813,1.3862,71.31,64,100,4.0,GB,1659015623
436,Puerto Cabello,10.4731,-68.0125,81.95,79,70,4.03,VE,1659015643
437,Meulaboh,4.1363,96.1285,78.58,82,100,2.98,ID,1659015643
438,Ixtapa,20.7,-105.2,81.23,89,100,3.44,MX,1659015512
439,Salinópolis,-0.6136,-47.3561,83.98,69,39,7.36,BR,1659015643
440,Wewak,-3.5534,143.6268,80.11,86,33,10.31,PG,1659015644
441,Whyalla,-33.0333,137.5833,51.21,64,96,6.87,AU,1659015644
442,Tra Vinh,9.9347,106.3453,79.05,88,13,3.83,VN,1659015514
443,Moree,-29.4667,149.85,45.1,76,0,6.98,AU,1659015644
444,Sola,-13.8833,167.55,80.49,78,86,16.71,VU,1659015645
445,Weligama,5.9667,80.4167,79.0,86,100,9.57,LK,1659015645
446,Daultala,33.1925,73.1413,77.63,81,48,12.1,PK,1659015645
447,Riohacha,11.5444,-72.9072,84.6,66,88,12.3,CO,1659015646
448,Matara,5.9485,80.5353,78.8,87,100,9.95,LK,1659015505
449,Baracoa,20.3467,-74.4958,82.24,75,43,11.74,CU,1659015646
450,Simpang,-1.2667,104.0833,76.84,81,46,2.17,ID,1659015646
451,Berlevåg,70.8578,29.0864,51.8,87,75,23.02,NO,1659015646
452,Bilma,18.6853,12.9164,104.22,17,100,6.53,NE,1659015647
453,Letlhakane,-21.4167,25.5833,77.27,12,0,13.02,BW,1659015647
454,Palana,59.1167,159.9667,42.53,84,5,7.56,RU,1659015647
455,Palmdale,34.5794,-118.1165,79.48,32,0,8.05,US,1659015512
456,Östersund,63.1792,14.6357,57.61,66,75,16.11,SE,1659015576
457,Maceió,-9.6658,-35.7353,78.24,83,75,6.91,BR,1659015648
458,Storforshei,66.4043,14.5233,55.65,66,75,8.05,NO,1659015648
459,Belle Fourche,44.6714,-103.8522,66.43,59,2,3.15,US,1659015648
460,Sur,22.5667,59.5289,88.03,58,59,21.97,OM,1659015603
461,Omsukchan,62.5333,155.8,50.97,55,100,0.98,RU,1659015647
462,Port Hardy,50.6996,-127.4199,53.78,94,40,0.0,CA,1659015608
463,Ocean City,39.2776,-74.5746,86.29,80,99,1.99,US,1659015649
464,Umeå,63.8284,20.2597,61.92,59,75,8.05,SE,1659015649
465,Ulaangom,49.9811,92.0667,62.55,54,76,3.65,MN,1659015650
466,Agadez,19.75,10.25,105.06,9,100,4.05,NE,1659015650
467,Yerbogachën,61.2767,108.0108,68.74,94,99,5.86,RU,1659015650
468,Bunia,1.5667,30.25,70.38,79,100,4.85,CD,1659015650
469,Meiktila,20.8667,95.8667,90.16,50,94,9.98,MM,1659015651
470,Khorixas,-20.3667,14.9667,82.04,13,0,7.96,NA,1659015651
471,Agirish,61.9247,63.0231,74.61,32,0,4.9,RU,1659015651
472,Makkah al Mukarramah,21.4267,39.8261,104.67,20,100,17.02,SA,1659015479
473,Iranshahr,27.2025,60.6848,97.14,41,75,4.61,IR,1659015652
474,Luang Prabang,19.8856,102.1347,77.0,87,89,0.81,LA,1659015652
475,San Juan,-31.5375,-68.5364,51.64,63,16,6.2,AR,1659015601
476,Plácido de Castro,-10.3353,-67.1856,89.64,32,18,1.59,BR,1659015652
477,Arica,-18.475,-70.3042,61.03,72,100,1.14,CL,1659015653
478,Puerto Ayacucho,5.6639,-67.6236,77.83,85,94,3.13,VE,1659015653
479,Goma,-1.6792,29.2228,73.99,53,97,2.93,CD,1659015653
480,Berezovyy,51.6667,135.7,68.56,96,99,3.29,RU,1659015653
481,Ntcheu,-14.8203,34.6359,68.85,38,85,7.83,MW,1659015654
482,Flin Flon,54.7682,-101.865,60.64,67,20,3.44,CA,1659015617
483,Port Blair,11.6667,92.75,82.44,83,40,4.61,IN,1659015654
484,Luan,46.3592,6.9759,77.63,54,75,10.0,CH,1659015654
485,Auki,-8.7676,160.7034,77.04,88,46,4.23,SB,1659015655
486,Concepción,-36.827,-73.0498,44.4,93,0,8.05,CL,1659015652
487,Bilibino,68.0546,166.4372,42.75,74,74,4.9,RU,1659015655
488,Hamilton,39.1834,-84.5333,79.09,87,20,8.05,US,1659015424
489,Wolbrom,50.3796,19.7583,78.03,43,99,2.84,PL,1659015655
490,Ostrovnoy,68.0531,39.5131,53.26,91,100,18.61,RU,1659015656
491,Novikovo,51.1537,37.8879,81.64,51,87,9.06,RU,1659015656
492,Lima,-12.0432,-77.0282,58.89,92,100,2.3,PE,1659015568
493,College,64.8569,-147.8028,46.22,87,75,5.75,US,1659015428
494,Saint-Cyr-sur-Loire,47.4,0.6667,86.56,26,0,3.44,FR,1659015656
495,Nha Trang,12.25,109.1833,84.2,87,62,4.94,VN,1659015657
496,Coahuayana Viejo,18.7333,-103.6833,77.74,81,85,3.74,MX,1659015577
497,Knysna,-34.0363,23.0471,73.65,44,0,1.79,ZA,1659015512
498,Gusau,12.1628,6.6614,79.61,70,100,9.69,NG,1659015657
499,Ubari,26.5921,12.7805,100.53,7,0,14.12,LY,1659015657
500,Kirakira,-10.4544,161.9205,78.87,86,62,8.99,SB,1659015658
501,Nuuk,64.1835,-51.7216,41.61,100,40,5.75,GL,1659015578
502,Inuvik,68.3499,-133.7218,47.16,97,100,12.66,CA,1659015658
503,Yantzaza,-3.8278,-78.7594,70.81,78,98,1.01,EC,1659015658
504,Morondava,-20.2833,44.2833,75.74,61,0,12.1,MG,1659015658
505,Sakakah,29.9697,40.2064,110.77,6,100,2.35,SA,1659015659
506,Rāzole,16.4833,81.8333,81.77,79,67,4.14,IN,1659015659
507,Llanes,43.4198,-4.7549,72.12,70,48,6.33,ES,1659015659
508,Province of Mantua,45.1667,10.7833,90.64,26,49,7.45,IT,1659015660
509,Najrān,17.4924,44.1277,97.45,14,21,9.24,SA,1659015660
510,Seoul,37.5683,126.9778,85.6,72,75,4.61,KR,1659015451
511,Mayma,52.0197,85.9114,66.99,77,2,3.58,RU,1659015660
512,Jining,35.405,116.5814,75.24,90,24,2.48,CN,1659015661
513,Benicarló,40.4165,0.4271,87.57,73,24,13.18,ES,1659015661
514,Jieznas,54.6,24.1667,62.19,71,61,10.8,LT,1659015661
515,Saint-Augustin,51.226,-58.6502,58.12,68,100,10.11,CA,1659015661
516,Lavrentiya,65.5833,-171.0,42.04,90,100,4.99,RU,1659015662
517,Bekhtery,46.251,32.2927,84.7,41,8,13.65,UA,1659015662
518,Kencong,-8.2833,113.3667,75.61,86,50,3.2,ID,1659015662
519,Albemarle,35.3501,-80.2001,87.46,76,0,6.91,US,1659015663
520,Manono,-7.3,27.4167,95.45,18,33,0.81,CD,1659015663
521,Jiehu,35.5428,118.455,75.49,93,100,2.26,CN,1659015663
522,Aksha,50.2814,113.2867,59.99,69,95,2.01,RU,1659015664
523,Grua,60.2667,10.6667,67.66,42,94,2.75,NO,1659015664
524,Camden,39.7835,-74.9663,85.71,78,100,1.99,US,1659015408
525,Petropavlovsk-Kamchatskiy,53.0452,158.6483,55.99,100,75,0.0,RU,1659015664
526,Saint-Pierre,-21.3393,55.4781,74.28,74,100,4.61,RE,1659015665
527,Gamboma,-1.8764,15.8644,93.56,27,63,3.83,CG,1659015665
528,Gao,16.6362,1.637,99.07,31,21,15.99,ML,1659015665
529,Asău,46.4333,26.4,76.12,71,97,3.98,RO,1659015666
530,Dolores,-36.3132,-57.6792,49.28,68,100,17.47,AR,1659015666
531,Kiryat Gat,31.61,34.7642,98.4,30,0,14.58,IL,1659015667
532,Alofi,-19.0595,-169.9187,73.29,83,81,12.66,NU,1659015667
533,Isangel,-19.55,169.2667,74.57,89,100,7.23,VU,1659015578
534,Kangaatsiaq,68.3065,-53.4641,40.66,91,100,6.06,GL,1659015667
535,Viedma,-40.8135,-62.9967,47.66,63,82,16.51,AR,1659015667
536,Andenes,69.3143,16.1194,52.93,82,75,10.36,NO,1659015668
537,Kendari,-3.945,122.4989,74.93,92,52,4.88,ID,1659015668
538,Dunedin,-45.8742,170.5036,43.81,81,100,8.01,NZ,1659015390
539,Road Town,18.4167,-64.6167,84.29,70,40,11.5,VG,1659015668
540,Erice,38.037,12.5865,91.36,40,20,16.11,IT,1659015669
541,Bela,25.9333,81.9833,91.27,54,85,1.03,IN,1659015669
542,Basco,20.4487,121.9702,86.2,72,17,8.95,PH,1659015669
543,Hannibal,39.7084,-91.3585,74.61,87,98,5.23,US,1659015669
544,Hare Bay,48.8499,-54.0148,65.8,78,70,10.51,CA,1659015670
545,Kovdor,67.5662,30.4758,49.23,84,100,10.71,RU,1659015670
546,Sept-Îles,50.2001,-66.3821,66.72,77,75,9.22,CA,1659015670
547,Miyako,39.6367,141.9525,71.28,94,11,3.56,JP,1659015671
548,Kinna,57.5073,12.6946,72.03,42,46,8.57,SE,1659015671
549,Akureyri,65.6835,-18.0878,62.53,39,40,18.41,IS,1659015671
550,Safranbolu,41.2508,32.6942,91.49,25,0,3.2,TR,1659015671
551,Charters Towers,-20.1,146.2667,52.77,56,0,8.32,AU,1659015552
552,Udachny,66.4167,112.4,78.58,56,30,6.06,RU,1659015612
553,Madingou,-4.1536,13.55,89.1,36,67,6.17,CG,1659015672
554,Negara,-8.3151,114.6025,74.03,83,97,5.77,ID,1659015672
555,Ayr,55.4627,-4.6339,67.5,63,40,8.05,GB,1659015672
556,Tilichiki,60.4667,166.1,44.98,79,100,5.84,RU,1659015673
557,Suzhou,31.3114,120.6181,81.55,76,0,8.32,CN,1659015552
