City_ID,City,Lat,Lng,Max Temp,Humidity,Cloudiness,Wind Speed,Country,Date
0,Kavieng,-2.5744,150.7967,85.33,64,62,13.0,PG,1658892676
1,Jamestown,42.097,-79.2353,65.84,69,40,0.0,US,1658892147
2,Tommot,58.9564,126.2925,84.2,35,23,6.69,RU,1658892676
3,Walvis Bay,-22.9575,14.5053,41.95,87,0,3.44,NA,1658892676
4,Ushuaia,-54.8,-68.3,35.26,55,0,4.61,AR,1658892327
5,Kaitangata,-46.2817,169.8464,45.5,97,100,9.95,NZ,1658892677
6,Torbay,47.6666,-52.7314,67.75,96,100,14.97,CA,1658892641
7,Finsterwalde,51.6333,13.7167,61.18,61,97,3.85,DE,1658892677
8,Puerto Ayora,-0.7393,-90.3518,69.55,91,100,1.99,EC,1658892677
9,Boa Vista,2.8197,-60.6733,75.18,83,100,5.75,BR,1658892678
10,São Félix do Xingu,-6.6447,-51.995,72.81,59,93,1.66,BR,1658892678
11,La Ronge,55.1001,-105.2842,61.05,72,75,4.61,CA,1658892640
12,Norman Wells,65.282,-126.8329,57.24,94,75,11.5,CA,1658892518
13,Piedra Gorda,18.4341,-66.8877,80.92,88,2,4.0,PR,1658892678
14,Tuatapere,-46.1333,167.6833,45.95,95,100,3.15,NZ,1658892517
15,Kiunga,-6.1219,141.2906,84.06,71,81,4.74,PG,1658892679
16,Mwingi,-0.9344,38.0601,63.39,79,100,5.57,KE,1658892679
17,Ulladulla,-35.35,150.4667,62.04,43,5,11.18,AU,1658892679
18,Hobart,-42.8794,147.3294,57.25,64,40,12.66,AU,1658892209
19,Mataura,-46.1927,168.8643,47.48,95,100,5.03,NZ,1658892329
20,Atuona,-9.8,-139.0333,77.18,76,13,16.42,PF,1658892336
21,Arraial do Cabo,-22.9661,-42.0278,70.03,86,0,16.58,BR,1658892513
22,Rikitea,-23.1203,-134.9692,74.41,74,73,7.63,PF,1658892324
23,Punta Arenas,-53.15,-70.9167,28.51,86,0,11.5,CL,1658892680
24,Nanortalik,60.1432,-45.2371,42.98,92,63,2.59,GL,1658892680
25,Saint-Joseph,-21.3667,55.6167,64.78,79,26,10.67,RE,1658892681
26,Labuhan,-6.8844,112.2051,86.59,53,13,3.96,ID,1658892681
27,San Cristobal,7.7669,-72.225,71.78,98,97,2.75,VE,1658892681
28,Cabo San Lucas,22.8909,-109.9124,88.9,69,0,17.27,MX,1658892682
29,Oksbøl,55.6268,8.2876,55.9,71,100,24.4,DK,1658892682
30,Port Moresby,-9.4431,147.1797,81.82,78,75,17.27,PG,1658892518
31,Chinhoyi,-17.3667,30.2,50.36,94,0,2.89,ZW,1658892682
32,Olinda,-8.0089,-34.8553,71.33,94,100,5.75,BR,1658892682
33,Payo,-3.7508,103.6372,85.28,63,99,2.53,ID,1658892683
34,Pīpār,26.3856,73.5378,80.28,83,99,13.15,IN,1658892683
35,Gushikawa,26.3544,127.8686,89.19,67,40,11.5,JP,1658892684
36,Yar-Sale,66.8333,70.8333,58.06,62,87,9.4,RU,1658892684
37,Chegdomyn,51.1167,133.0167,78.69,70,46,4.14,RU,1658892684
38,Kenora,49.8167,-94.4337,59.97,88,40,6.91,CA,1658892684
39,Hilo,19.7297,-155.09,87.28,84,100,5.75,US,1658892339
40,Talaya,61.3833,152.75,63.39,46,100,5.77,RU,1658892685
41,Saldanha,-33.0117,17.9442,46.45,86,0,6.96,ZA,1658892685
42,Port Alfred,-33.5906,26.891,59.18,68,47,5.01,ZA,1658892685
43,Aruppukkottai,9.5167,78.1,84.63,58,83,2.08,IN,1658892686
44,Esperance,-33.8667,121.9,59.61,72,99,3.87,AU,1658892510
45,Alice Springs,-23.7,133.8833,58.55,29,0,12.66,AU,1658892611
46,Jinhua,29.1078,119.6547,99.39,43,33,0.4,CN,1658892686
47,Bethalto,38.9092,-90.0407,76.98,93,75,4.61,US,1658892686
48,Kapaa,22.0752,-159.319,85.98,74,75,17.27,US,1658892574
49,Mataram,-8.5833,116.1167,85.01,64,33,9.1,ID,1658892687
50,Nikolskoye,59.7035,30.7861,66.78,88,99,4.83,RU,1658892334
51,Busselton,-33.65,115.3333,59.74,65,99,5.48,AU,1658892687
52,Moshenskoye,58.5102,34.5911,68.47,76,77,4.23,RU,1658892688
53,Provideniya,64.3833,-173.3,48.36,71,0,18.01,RU,1658892688
54,Kruisfontein,-34.0033,24.7314,52.88,83,60,15.93,ZA,1658892688
55,Qaanaaq,77.484,-69.3632,37.6,72,46,1.45,GL,1658892688
56,Brae,60.3964,-1.353,52.09,85,78,8.63,GB,1658892689
57,Gizo Government Station,-8.103,156.8419,84.33,68,76,1.32,SB,1658892689
58,Hong Kong,22.2855,114.1577,93.25,69,9,8.01,HK,1658892257
59,Hasaki,35.7333,140.8333,93.29,80,71,20.62,JP,1658892689
60,Sambava,-14.2667,50.1667,65.84,84,63,8.43,MG,1658892690
61,Rocha,-34.4833,-54.3333,60.04,95,61,1.66,UY,1658892690
62,Cape Town,-33.9258,18.4232,55.11,91,40,3.44,ZA,1658892428
63,New Norfolk,-42.7826,147.0587,55.92,72,60,3.0,AU,1658892690
64,Bengkulu,-3.8004,102.2655,82.56,69,79,2.37,ID,1658892580
65,Saint-Philippe,-21.3585,55.7679,65.79,84,60,12.97,RE,1658892691
66,Katherine,-14.4667,132.2667,82.72,24,5,14.97,AU,1658892691
67,Tiksi,71.6872,128.8694,56.14,71,80,3.89,RU,1658892691
68,Yellowknife,62.456,-114.3525,66.72,55,20,8.05,CA,1658892337
69,West Bay,19.3667,-81.4167,81.0,87,40,13.8,KY,1658892692
70,Albany,42.6001,-73.9662,64.81,80,0,3.65,US,1658892325
71,Severo-Kuril'sk,50.6789,156.125,55.2,82,94,4.7,RU,1658892692
72,East London,-33.0153,27.9116,61.74,63,20,8.05,ZA,1658892441
73,Borūjerd,33.8973,48.7516,64.63,19,0,0.89,IR,1658892693
74,Ati,13.2154,18.3353,72.25,82,100,9.37,TD,1658892693
75,Dikson,73.5069,80.5464,42.73,98,100,23.69,RU,1658892330
76,Mar del Plata,-38.0023,-57.5575,53.1,98,100,5.75,AR,1658892604
77,Tuktoyaktuk,69.4541,-133.0374,62.6,51,20,26.46,CA,1658892693
78,Geraldton,-28.7667,114.6,64.81,59,0,13.8,AU,1658892668
79,Sergeevka,53.88,67.4158,71.15,70,100,12.33,KZ,1658892694
80,San Quintín,30.4833,-115.95,66.99,85,5,9.13,MX,1658892694
81,Rodrigues Alves,-7.738,-72.6509,75.63,81,82,1.66,BR,1658892694
82,Russell,32.3502,-85.1999,82.0,83,0,0.0,US,1658892695
83,Ponta do Sol,32.6667,-17.1,73.13,65,1,6.69,PT,1658892695
84,Changji,44.0167,87.3167,88.59,22,0,4.47,CN,1658892695
85,Chuguyevka,44.1653,133.8633,86.38,52,12,4.54,RU,1658892695
86,San Nicolas,18.1725,120.5953,87.71,70,40,8.05,PH,1658892696
87,Aquiraz,-3.9014,-38.3911,78.89,86,96,11.41,BR,1658892696
88,Iqaluit,63.7506,-68.5145,44.33,81,20,3.44,CA,1658892696
89,Qaqortoq,60.7167,-46.0333,41.68,96,21,3.98,GL,1658892697
90,Cefalù,38.0386,14.0229,80.55,66,0,1.99,IT,1658892697
91,Chengzhong,30.95,113.55,91.83,67,100,6.29,CN,1658892698
92,Makakilo City,21.3469,-158.0858,82.72,62,100,19.57,US,1658892699
93,Saint Paul Harbor,57.79,-152.4072,53.11,71,0,5.75,US,1658892699
94,Hermanus,-34.4187,19.2345,47.8,84,24,3.94,ZA,1658892700
95,Malé,4.1748,73.5089,84.15,79,75,13.8,MV,1658892450
96,Belaya Gora,68.5333,146.4167,64.02,33,11,12.68,RU,1658892700
97,Najrān,17.4924,44.1277,77.65,41,91,4.12,SA,1658892700
98,Chenghai,23.4632,116.768,91.31,62,20,4.47,CN,1658892701
99,Vila Franca do Campo,37.7167,-25.4333,74.19,94,27,4.5,PT,1658892701
100,Lüderitz,-26.6481,15.1594,53.94,73,0,8.88,NA,1658892701
101,São Filipe,14.8961,-24.4956,77.09,85,54,3.13,CV,1658892702
102,Mahébourg,-20.4081,57.7,67.24,94,75,2.3,MU,1658892335
103,Sabang,5.8933,95.3214,81.73,72,100,4.12,ID,1658892702
104,Avarua,-21.2078,-159.775,73.45,64,40,17.27,CK,1658892702
105,San Patricio,28.017,-97.5169,85.89,75,100,12.91,US,1658892703
106,Garoowe,8.4054,48.4845,73.94,66,1,26.62,SO,1658892703
107,Bredasdorp,-34.5322,20.0403,48.56,93,17,5.19,ZA,1658892432
108,Garden City,42.3256,-83.331,73.98,71,75,4.61,US,1658892703
109,Jalu,29.0331,21.5482,80.06,39,8,7.81,LY,1658892703
110,Bucksport,44.5737,-68.7956,67.08,82,45,1.68,US,1658892704
111,Bluff,-46.6,168.3333,47.8,89,100,19.35,NZ,1658892704
112,Beringovskiy,63.05,179.3167,47.39,98,100,4.16,RU,1658892704
113,Petauke,-14.2426,31.3253,56.1,85,25,6.6,ZM,1658892705
114,Serenje,-13.2325,30.2352,47.71,93,2,6.2,ZM,1658892705
115,Buala,-8.145,159.5921,85.35,67,85,6.38,SB,1658892705
116,Port Elizabeth,-33.918,25.5701,59.31,80,0,23.02,ZA,1658892705
117,Berbérati,4.2612,15.7922,67.71,96,97,3.42,CF,1658892706
118,Cilegon,-6.0174,106.0538,83.26,65,100,3.96,ID,1658892706
119,Saint-Augustin,51.226,-58.6502,60.24,75,24,12.73,CA,1658892706
120,Gladstone,-23.85,151.25,67.93,32,0,8.05,AU,1658892619
121,San Roque,36.2107,-5.3842,76.03,69,1,14.97,ES,1658892707
122,Hithadhoo,-0.6,73.0833,76.14,91,100,14.52,MV,1658892707
123,Cidreira,-30.1811,-50.2056,61.38,92,17,14.34,BR,1658892336
124,Vaini,-21.2,-175.2,74.12,73,86,12.84,TO,1658892707
125,Caravelas,-17.7125,-39.2481,69.31,80,1,5.7,BR,1658892708
126,Tocache,-8.1842,-76.5125,66.99,98,38,0.69,PE,1658892708
127,Baker City,44.7749,-117.8344,82.11,34,0,10.36,US,1658892708
128,Dingle,10.9995,122.6711,87.67,69,85,12.73,PH,1658892708
129,Sena Madureira,-9.0656,-68.6569,74.07,57,70,0.65,BR,1658892709
130,Narsaq,60.9167,-46.05,52.02,90,25,1.81,GL,1658892709
131,Maiduguri,11.8464,13.1603,79.86,70,98,11.25,NG,1658892709
132,Constitución,-35.3333,-72.4167,50.61,92,96,4.97,CL,1658892338
133,Bambous Virieux,-20.3428,57.7575,67.21,94,75,2.3,MU,1658892710
134,Ribeira Grande,38.5167,-28.7,73.9,82,31,8.81,PT,1658892710
135,Clyde River,70.4692,-68.5914,39.43,100,100,2.3,CA,1658892710
136,Kalāleh,37.3807,55.4916,74.8,88,40,0.0,IR,1658892711
137,Dongsheng,39.8161,109.9776,77.45,31,98,8.99,CN,1658892711
138,Antofagasta,-23.65,-70.4,56.48,80,75,6.2,CL,1658892711
139,Acaraú,-2.8856,-40.12,76.33,80,40,11.72,BR,1658892711
140,Elizabeth City,36.2946,-76.2511,78.03,95,20,6.91,US,1658892712
141,Yangi Marg`ilon,40.4272,71.7189,93.92,21,4,4.61,UZ,1658892511
142,Iskateley,67.6803,53.1512,62.4,61,77,13.8,RU,1658892712
143,La Palma,33.8464,-118.0467,82.49,77,20,12.66,US,1658892712
144,Barrow,71.2906,-156.7887,35.62,93,100,12.66,US,1658892713
145,Ostrovnoy,68.0531,39.5131,64.42,76,97,19.93,RU,1658892713
146,Guerrero Negro,27.9769,-114.0611,69.04,82,5,11.39,MX,1658892695
147,Aleksandrov Gay,50.147,48.5704,75.52,55,62,5.79,RU,1658892713
148,Butaritari,3.0707,172.7902,82.35,74,6,19.08,KI,1658892329
149,Fortuna,40.5982,-124.1573,58.93,86,34,4.0,US,1658892327
150,Lorengau,-2.0226,147.2712,85.51,69,25,10.92,PG,1658892714
151,Mirpur Mathelo,28.0227,69.5489,87.17,71,40,6.89,PK,1658892714
152,Bereda,43.2686,-7.5406,60.42,97,91,5.5,ES,1658892715
153,Puerto del Rosario,28.5004,-13.8627,78.55,57,0,10.36,ES,1658892715
154,Buchanan,5.8808,-10.0467,75.29,85,95,8.7,LR,1658892325
155,Chui,-33.6971,-53.4616,57.4,96,19,2.33,UY,1658892715
156,Mauá,-23.6678,-46.4614,64.36,87,55,3.02,BR,1658892492
157,Amapá,1.0,-52.0,71.38,99,100,1.52,BR,1658892716
158,Luga,58.7372,29.8453,61.66,93,100,3.83,RU,1658892716
159,Hualmay,-11.0964,-77.6139,61.48,86,90,9.55,PE,1658892716
160,Chokurdakh,70.6333,147.9167,61.9,30,39,10.94,RU,1658892717
161,Westport,41.1415,-73.3579,74.17,78,0,4.61,US,1658892717
162,Aksarka,66.5606,67.7975,57.96,62,60,10.54,RU,1658892717
163,Badvel,14.75,79.05,84.7,63,47,4.9,IN,1658892717
164,Paita,-5.0892,-81.1144,63.82,85,100,14.2,PE,1658892718
165,Fare,-16.7,-151.0167,78.53,72,8,6.76,PF,1658892718
166,Khatanga,71.9667,102.5,63.86,75,100,20.54,RU,1658892718
167,Isangel,-19.55,169.2667,82.51,74,75,6.91,VU,1658892719
168,Vestmannaeyjar,63.4427,-20.2734,53.58,98,100,16.06,IS,1658892719
169,Kumul,42.8,93.45,92.8,8,1,2.57,CN,1658892719
170,Turka,49.1541,23.0297,54.14,98,100,1.21,UA,1658892719
171,Arcata,40.8665,-124.0828,58.62,88,100,3.44,US,1658892624
172,Saint George,37.1041,-113.5841,75.79,73,75,19.57,US,1658892430
173,Arrah,25.5667,84.6667,82.29,50,94,3.85,IN,1658892720
174,Upernavik,72.7868,-56.1549,37.81,87,95,7.63,GL,1658892506
175,Belém de São Francisco,-8.7539,-38.9658,70.34,80,100,14.94,BR,1658892721
176,Yumen,40.2833,97.2,89.11,8,5,14.54,CN,1658892721
177,Laguna,38.421,-121.4238,86.4,46,0,10.36,US,1658892721
178,Bud,39.447,-86.1758,73.42,94,67,3.49,US,1658892722
179,Honiara,-9.4333,159.95,84.4,70,49,4.07,SB,1658892722
180,Touros,-5.1989,-35.4608,72.84,89,3,10.38,BR,1658892722
181,Katsuura,35.1333,140.3,83.39,80,47,14.61,JP,1658892722
182,Ullapool,57.8987,-5.1604,52.36,92,51,3.8,GB,1658892723
183,Ilulissat,69.2167,-51.1,42.82,93,100,6.91,GL,1658892723
184,Wolfeboro,43.584,-71.2073,65.25,82,0,0.0,US,1658892724
185,Dabat,12.9842,37.765,53.67,90,100,2.46,ET,1658892724
186,Salinópolis,-0.6136,-47.3561,78.37,83,57,9.73,BR,1658892724
187,Kahului,20.8947,-156.47,82.42,66,75,23.02,US,1658892333
188,Abu Dhabi,24.4667,54.3667,87.91,63,0,10.36,AE,1658892725
189,Chengde,40.9725,117.9361,84.72,53,100,5.3,CN,1658892725
190,Thompson,55.7435,-97.8558,57.36,82,75,9.22,CA,1658892555
191,Kavaratti,10.5669,72.642,81.59,78,100,15.3,IN,1658892725
192,Pangnirtung,66.1451,-65.7125,46.74,80,49,1.86,CA,1658892725
193,Kalach-na-Donu,48.691,43.5264,71.56,66,2,4.63,RU,1658892726
194,Concarneau,47.875,-3.9225,54.82,85,27,5.59,FR,1658892726
195,Nantucket,41.2835,-70.0995,71.71,88,0,5.75,US,1658892671
196,Huilong,31.8111,121.655,86.32,70,45,3.76,CN,1658892726
197,Nelson Bay,-32.7167,152.15,64.99,53,5,14.0,AU,1658892727
198,Eureka,40.8021,-124.1637,58.62,85,46,1.99,US,1658892727
199,Castro,-24.7911,-50.0119,53.24,85,1,3.71,BR,1658892727
200,Mumbwa,-14.9783,27.0619,51.98,79,0,6.17,ZM,1658892728
201,George Town,5.4112,100.3354,87.75,70,40,10.36,MY,1658892728
202,Umluj,25.0213,37.2685,85.59,54,68,7.61,SA,1658892728
203,Saskylakh,71.9167,114.0833,79.18,50,36,11.86,RU,1658892335
204,Leh,34.1667,77.5833,63.36,58,100,0.87,IN,1658892728
205,Airai,-8.9266,125.4092,72.16,44,69,5.59,TL,1658892729
206,Sanguéya,10.7,-14.3667,74.43,94,100,2.75,GN,1658892729
207,Lahat,-3.8,103.5333,82.87,68,99,2.08,ID,1658892500
208,Bristol,41.8334,-71.1662,70.43,73,5,3.04,US,1658892493
209,Marsh Harbour,26.5412,-77.0636,82.53,77,100,15.35,BS,1658892730
210,Dali,25.7,100.1833,73.06,65,98,4.54,CN,1658892730
211,Mount Isa,-20.7333,139.5,73.17,28,0,12.66,AU,1658892730
212,Adiaké,5.2863,-3.304,74.88,87,100,9.57,CI,1658892731
213,Cherskiy,68.75,161.3,54.77,43,26,10.85,RU,1658892731
214,Minot,48.2325,-101.2963,62.82,72,100,5.75,US,1658892600
215,Novaya Lyalya,59.055,60.599,61.79,55,63,5.84,RU,1658892731
216,Raudeberg,61.9875,5.1352,47.07,78,88,12.15,NO,1658892732
217,Port Hawkesbury,45.6169,-61.3485,67.59,95,75,2.3,CA,1658892732
218,Klyuchi,52.2667,79.1667,80.31,34,100,6.98,RU,1658892732
219,Port Blair,11.6667,92.75,86.04,79,40,3.44,IN,1658892435
220,Paamiut,61.994,-49.6678,41.43,94,59,15.28,GL,1658892733
221,Kawalu,-7.3817,108.2082,82.8,59,44,4.68,ID,1658892733
222,Turukhansk,65.8167,87.9833,69.82,52,0,1.61,RU,1658892733
223,Ridgecrest,35.6225,-117.6709,98.46,16,40,16.11,US,1658892623
224,Osakarovka,50.565,72.5692,83.26,22,74,16.35,KZ,1658892734
225,Upata,8.0086,-62.3989,68.65,95,28,3.31,VE,1658892734
226,Whitehorse,60.7161,-135.0538,75.97,20,75,13.8,CA,1658892439
227,Katiuzhanka,50.806,30.1376,62.58,73,100,3.56,UA,1658892735
228,Belmonte,-15.8631,-38.8828,69.84,80,8,7.23,BR,1658892735
229,Takoradze,4.8845,-1.7554,74.52,90,96,10.04,GH,1658892735
230,Kuliyapitiya,7.4688,80.0401,80.28,84,100,0.76,LK,1658892735
231,Cururupu,-1.8283,-44.8683,73.74,92,44,2.68,BR,1658892736
232,Surgut,61.25,73.4167,62.78,77,20,13.42,RU,1658892736
233,Los Llanos de Aridane,28.6585,-17.9182,74.95,47,0,11.5,ES,1658892736
234,Hobyo,5.3505,48.5268,76.91,77,68,20.78,SO,1658892736
235,Fairbanks,64.8378,-147.7164,60.8,54,75,14.97,US,1658892656
236,Novo Aripuanã,-5.1206,-60.3797,78.26,56,91,1.79,BR,1658892737
237,Yendi,9.4427,-0.0099,70.25,95,73,5.37,GH,1658892737
238,Kloulklubed,7.0419,134.2556,84.7,70,35,4.5,PW,1658892738
239,Imeni Poliny Osipenko,52.4201,136.4853,72.43,62,23,3.44,RU,1658892738
240,Mananjary,-21.2167,48.3333,62.82,90,8,3.58,MG,1658892739
241,Karera,25.4667,78.15,84.33,71,100,8.41,IN,1658892739
242,Yerbogachën,61.2767,108.0108,71.53,54,64,7.54,RU,1658892740
243,Karratha,-20.7377,116.8463,81.45,27,1,15.55,AU,1658892740
244,Xapuri,-10.6517,-68.5044,75.04,68,72,1.43,BR,1658892740
245,Xiazhen,34.8022,117.1117,88.27,60,7,2.24,CN,1658892741
246,Arrondissement de Saint-Denis,48.9167,2.3333,61.36,86,0,8.05,FR,1658892741
247,Plastun,44.7561,136.2939,73.47,73,34,6.73,RU,1658892741
248,Sørland,67.667,12.6934,51.66,81,100,25.32,NO,1658892742
249,Zaykovo,57.5613,62.7568,62.94,59,83,8.48,RU,1658892742
250,Carauari,-4.8828,-66.8958,74.07,87,4,2.24,BR,1658892685
251,Viedma,-40.8135,-62.9967,49.01,97,100,1.79,AR,1658892742
252,Okahandja,-21.9833,16.9167,53.4,28,1,3.58,NA,1658892743
253,Toamasina,-18.1667,49.3833,59.0,94,40,0.0,MG,1658892743
254,Half Moon Bay,37.4636,-122.4286,68.92,85,100,13.8,US,1658892743
255,Ahipara,-35.1667,173.1667,59.52,83,47,11.36,NZ,1658892744
256,Wick,58.4333,-3.0833,50.05,87,26,3.44,GB,1658892744
257,Lodja,-3.4833,23.4333,67.24,58,90,1.97,CD,1658892744
258,Praia,14.9215,-23.5087,79.34,78,20,3.44,CV,1658892744
259,Caluquembe,-13.7833,14.6833,52.84,42,45,3.69,AO,1658892745
260,Eagle Pass,28.7091,-100.4995,95.27,32,66,19.06,US,1658892745
261,Aksu,41.1231,80.2644,95.27,14,2,3.91,CN,1658892745
262,Sal Rei,16.1833,-22.9167,77.97,85,100,6.69,CV,1658892746
263,Miyako,39.6367,141.9525,80.08,78,62,4.97,JP,1658892746
264,Port Shepstone,-30.7414,30.455,62.15,43,31,7.54,ZA,1658892746
265,Ploemeur,47.7333,-3.4333,61.83,81,0,6.91,FR,1658892746
266,Inuvik,68.3499,-133.7218,66.96,33,20,16.11,CA,1658892747
267,Anloga,5.7947,0.8973,75.38,87,88,14.58,GH,1658892747
268,De-Kastri,51.4667,140.7833,62.8,88,100,3.8,RU,1658892747
269,Waipawa,-41.4122,175.5153,48.99,92,100,2.35,NZ,1658892748
270,Boende,-0.2167,20.8667,70.77,97,100,2.3,CD,1658892748
271,Sterlitamak,53.6246,55.9502,69.19,75,55,2.04,RU,1658892748
272,Papillion,41.1544,-96.0422,75.09,93,0,3.44,US,1658892749
273,Nova Ushytsya,48.8372,27.2743,64.81,54,62,6.96,UA,1658892749
274,Itaituba,-4.2761,-55.9836,74.77,61,36,1.39,BR,1658892749
275,Conceição do Araguaia,-8.2578,-49.2647,69.93,42,100,2.44,BR,1658892750
276,Roald,62.5833,6.1333,53.17,93,75,5.75,NO,1658892750
277,Namatanai,-3.6667,152.4333,84.69,64,41,9.08,PG,1658892750
278,Naze,28.3667,129.4833,76.12,72,17,6.67,JP,1658892750
279,Port Hardy,50.6996,-127.4199,64.58,82,20,5.75,CA,1658892641
280,Lebu,-37.6167,-73.65,50.4,86,61,12.97,CL,1658892751
281,Pampa,35.5362,-100.9599,92.35,27,0,11.5,US,1658892751
282,Tayoltita,24.0833,-105.9333,69.37,92,100,3.85,MX,1658892751
283,Tasiilaq,65.6145,-37.6368,41.16,96,100,5.06,GL,1658892752
284,Irbeyskoye,55.6428,95.4522,66.42,60,8,6.13,RU,1658892752
285,Taoudenni,22.6783,-3.9836,94.03,11,0,9.55,ML,1658892752
286,Shingū,33.7333,135.9833,85.01,73,100,5.95,JP,1658892507
287,Celestún,20.8667,-90.4,78.06,83,36,9.82,MX,1658892753
288,Kayerkan,69.3497,87.7602,66.52,52,4,7.45,RU,1658892753
289,Lavrentiya,65.5833,-171.0,44.82,72,74,10.42,RU,1658892753
290,Gimli,50.6336,-96.9907,58.91,83,34,10.47,CA,1658892753
291,Havre-St-Pierre,50.2334,-63.5986,55.76,88,100,8.05,CA,1658892754
292,Sawtell,-30.3833,153.1,66.18,36,0,11.5,AU,1658892754
293,Dehlorān,32.6941,47.2679,97.32,7,91,3.98,IR,1658892754
294,Castelfiorentino,43.61,10.9692,74.35,87,2,1.39,IT,1658892755
295,Batticaloa,7.7102,81.6924,83.16,72,92,7.99,LK,1658892755
296,Samarkand,39.6542,66.9597,85.42,30,0,6.91,UZ,1658892755
297,Houma,29.5958,-90.7195,80.01,87,0,1.01,US,1658892756
298,Porto-Novo,6.4965,2.6036,75.06,89,100,9.55,BJ,1658892756
299,Yuanping,38.7153,112.7575,65.17,96,100,2.3,CN,1658892756
300,Coyhaique,-45.5752,-72.0662,31.95,86,75,2.3,CL,1658892756
301,Zhangjiakou,40.81,114.8794,78.57,60,100,9.06,CN,1658892757
302,Price,39.5994,-110.8107,81.66,36,100,9.22,US,1658892757
303,Cao Bang,22.6667,106.25,92.05,49,33,5.39,VN,1658892757
304,Longyearbyen,78.2186,15.6401,48.04,76,75,3.44,SJ,1658892758
305,Sur,22.5667,59.5289,83.19,71,83,17.0,OM,1658892758
306,Reconquista,-29.15,-59.65,69.94,67,66,10.33,AR,1658892758
307,Sitka,57.0531,-135.33,62.49,77,40,12.66,US,1658892758
308,Bara,10.3744,10.7288,73.89,91,100,8.81,NG,1658892328
309,Robertsport,6.7533,-11.3686,76.14,82,100,7.81,LR,1658892759
310,Mazagão,-0.115,-51.2894,78.85,94,99,3.33,BR,1658892759
311,Ende,-8.8432,121.6623,84.43,52,57,4.68,ID,1658892760
312,Rawson,-43.3002,-65.1023,44.98,95,100,11.54,AR,1658892760
313,La Flèche,47.6982,-0.0755,57.45,89,1,6.38,FR,1658892761
314,Baruun-Urt,46.6806,113.2792,75.22,39,1,11.63,MN,1658892761
315,Cockburn Town,21.4612,-71.1419,81.72,82,0,18.14,TC,1658892669
316,Cap Malheureux,-19.9842,57.6142,67.46,75,5,4.0,MU,1658892762
317,Lompoc,34.6391,-120.4579,64.78,82,0,9.22,US,1658892328
318,Magdagachi,53.45,125.8,86.32,44,91,7.99,RU,1658892762
319,Verkhnevilyuysk,63.4453,120.3167,87.98,46,7,8.86,RU,1658892762
320,Harper,4.375,-7.7169,74.79,83,99,8.9,LR,1658892763
321,Ranong,9.9658,98.6348,85.93,72,86,1.9,TH,1658892763
322,Hofn,64.2539,-15.2082,51.04,87,100,4.03,IS,1658892763
323,Princeton,25.5384,-80.4089,84.02,91,75,9.22,US,1658892545
324,Tabuk,17.4189,121.4443,85.98,72,100,3.38,PH,1658892507
325,Comodoro Rivadavia,-45.8667,-67.5,33.66,93,0,3.44,AR,1658892764
326,Muncar,-8.4333,114.3333,81.77,66,54,7.76,ID,1658892764
327,Otane,-39.8833,176.6333,55.83,87,90,10.27,NZ,1658892765
328,Açucena,-19.0731,-42.5464,54.12,84,0,1.43,BR,1658892765
329,Ozerki,57.6167,39.8833,64.42,94,0,2.24,RU,1658892765
330,Aswān,24.0934,32.907,85.3,18,0,6.91,EG,1658892765
331,Lusambo,-4.9667,23.45,67.06,51,76,1.9,CD,1658892766
332,Vao,-22.6667,167.4833,69.15,66,0,7.63,NC,1658892766
333,Salalah,17.0151,54.0924,75.29,100,100,5.75,OM,1658892766
334,Obo,5.3998,26.4869,66.99,99,100,3.49,CF,1658892767
335,Mnogovershinnyy,53.9353,139.9242,59.79,76,100,2.84,RU,1658892767
336,Coquimbo,-29.9533,-71.3436,53.33,100,0,10.36,CL,1658892663
337,Chumikan,54.7183,135.315,65.17,68,11,7.23,RU,1658892768
338,Dzhebariki-Khaya,62.2167,135.8,82.96,42,28,5.75,RU,1658892768
339,Tianpeng,30.9866,103.9393,73.87,67,5,9.31,CN,1658892768
340,Scarborough,54.2797,-0.4044,54.34,86,95,4.76,GB,1658892762
341,Samfya,-11.3649,29.5565,54.46,66,18,7.78,ZM,1658892768
342,Nuuk,64.1835,-51.7216,41.61,93,100,9.22,GL,1658892769
343,San Borja,-14.8167,-66.85,74.21,77,35,2.3,BO,1658892769
344,Kosonsoy,41.2561,71.5508,82.96,13,0,7.74,UZ,1658892769
345,Vardø,70.3705,31.1107,57.18,100,75,13.8,NO,1658892770
346,Padang,-0.9492,100.3543,80.65,64,88,3.78,ID,1658892770
347,Stephenville,32.2207,-98.2023,92.8,33,40,9.22,US,1658892641
348,Traverse City,44.7631,-85.6206,68.07,80,0,4.61,US,1658892691
349,General Pico,-35.6566,-63.7568,61.74,95,98,6.69,AR,1658892771
350,Anadyr,64.75,177.4833,48.7,87,75,15.66,RU,1658892771
351,Pangkalanbuun,-2.6833,111.6167,83.08,77,100,4.56,ID,1658892771
352,Mehamn,71.0357,27.8492,57.11,100,75,6.91,NO,1658892772
353,Vágur,61.4732,-6.8119,51.17,93,100,12.71,FO,1658892772
354,Filingué,14.3521,3.3168,82.94,64,52,18.21,NE,1658892772
355,Almaznyy,48.0448,40.045,67.86,72,100,5.23,RU,1658892772
356,Barra de Tecoanapa,16.5167,-98.75,78.64,86,95,3.83,MX,1658892773
357,Ixtapa,20.7,-105.2,75.22,100,100,8.05,MX,1658892773
358,Luwuk,-0.9516,122.7875,77.04,94,100,6.26,ID,1658892773
359,Mīnāb,27.1467,57.0801,85.23,77,100,0.65,IR,1658892773
360,Aripuanã,-9.1667,-60.6333,72.97,50,42,1.52,BR,1658892774
361,Acarí,-15.4311,-74.6158,62.04,80,65,3.69,PE,1658892774
362,Arrondissement de Libourne,44.9167,-0.25,57.7,93,0,2.24,FR,1658892774
363,Bambanglipuro,-7.95,110.2833,82.62,67,92,9.75,ID,1658892775
364,Grindavik,63.8424,-22.4338,55.35,100,100,18.41,IS,1658892775
365,Papetoai,-17.4961,-149.8729,80.19,78,8,8.05,PF,1658892775
366,Ruwi,23.5996,58.5507,83.89,69,87,5.21,OM,1658892776
367,Mineral Wells,32.8085,-98.1128,94.64,29,0,8.05,US,1658892589
368,Venustiano Carranza,19.43,-99.0992,68.14,52,75,12.66,MX,1658892776
369,Erzin,36.9559,36.2,77.97,66,0,1.74,TR,1658892777
370,Mezen',65.8522,44.24,67.03,62,63,10.33,RU,1658892777
371,Carnarvon,-24.8667,113.6333,72.16,30,86,1.68,AU,1658892777
372,La Santisima Trinidad,-14.8333,-64.9,77.83,61,53,1.74,BO,1658892777
373,Camacha,33.0833,-16.3333,67.42,83,40,13.8,PT,1658892778
374,Angoche,-16.2325,39.9086,71.47,69,100,9.8,MZ,1658892778
375,Kailua,21.4022,-157.7394,84.18,74,100,11.5,US,1658892778
376,Klaksvík,62.2266,-6.589,52.72,92,100,8.39,FO,1658892779
377,Coahuayana Viejo,18.7333,-103.6833,78.37,83,100,2.39,MX,1658892779
378,Probolinggo,-7.7543,113.2159,87.87,53,7,7.58,ID,1658892779
379,Japura,-0.3167,102.35,86.11,66,94,5.01,ID,1658892779
380,Selenginsk,52.0064,106.8647,64.81,71,100,8.32,RU,1658892780
381,Fuling,29.7022,107.3919,94.57,55,84,1.57,CN,1658892780
382,Phuket,8.0,98.25,88.09,84,20,10.36,TH,1658892780
383,Safi,32.2994,-9.2372,71.13,83,0,15.52,MA,1658892781
384,Fort Nelson,58.8053,-122.7002,85.59,35,40,4.61,CA,1658892640
385,Altyn-Topkan,40.6528,69.5998,77.47,24,1,6.58,TJ,1658892781
386,Haines Junction,60.7522,-137.5108,66.15,39,63,14.97,CA,1658892781
387,Kifrī,34.6959,44.9661,92.68,10,0,6.13,IQ,1658892782
388,Goderich,43.7501,-81.7165,61.92,88,33,5.75,CA,1658892782
389,Souillac,-20.5167,57.5167,66.58,94,75,2.3,MU,1658892783
390,Mitsamiouli,-11.3847,43.2844,70.09,83,20,4.61,KM,1658892783
391,Ulaangom,49.9811,92.0667,67.46,41,77,5.37,MN,1658892783
392,Hambantota,6.1241,81.1185,80.94,94,20,1.14,LK,1658892784
393,Sundumbili,-29.1337,31.3975,54.86,41,0,5.59,ZA,1658892784
394,Kangasala,61.4638,24.076,60.98,94,35,9.33,FI,1658892784
395,Kristinestad,62.2743,21.376,59.83,86,3,10.33,FI,1658892785
396,Wieliczka,49.9874,20.0647,61.29,91,8,1.99,PL,1658892785
397,Libreville,0.3925,9.4537,77.02,83,75,6.91,GA,1658892569
398,Leningradskiy,69.3833,178.4167,36.45,92,100,5.5,RU,1658892324
399,Atar,20.5169,-13.0499,90.28,44,100,11.56,MR,1658892338
400,Ankazobe,-18.3167,47.1167,51.93,91,35,3.83,MG,1658892786
401,Swan Hill,-35.3378,143.5544,60.31,49,88,14.52,AU,1658892786
402,Valdivia,-39.8142,-73.2459,42.89,99,100,2.53,CL,1658892733
403,Maniitsoq,65.4167,-52.9,41.16,90,85,7.34,GL,1658892786
404,Mossamedes,-15.1961,12.1522,62.4,74,2,2.19,AO,1658892787
405,Kidal,18.4411,1.4078,91.96,10,17,5.82,ML,1658892787
406,Vila,42.0304,-8.1588,50.88,88,2,4.47,PT,1658892787
407,Faya,18.3851,42.4509,62.71,60,100,2.98,SA,1658892788
408,Kokhma,56.9349,41.0915,68.95,82,11,3.78,RU,1658892788
409,Tessalit,20.1986,1.0114,92.95,11,5,6.85,ML,1658892788
410,Buraidah,26.326,43.975,86.45,15,100,7.34,SA,1658892789
411,Okha,53.5739,142.9478,60.3,78,96,6.89,RU,1658892789
412,Jardim,-21.4803,-56.1381,69.24,46,0,2.08,BR,1658892789
413,Talnakh,69.4865,88.3972,67.21,43,36,5.59,RU,1658892790
414,Maumere,-8.6199,122.2111,82.22,58,95,2.68,ID,1658892790
415,Pitimbu,-7.4706,-34.8086,72.19,84,54,11.3,BR,1658892790
416,Nouakchott,18.0858,-15.9785,80.53,86,50,14.67,MR,1658892790
417,Dicabisagan,17.0818,122.4157,87.1,70,100,3.65,PH,1658892791
418,Choya,52.0108,86.5467,73.06,47,1,3.11,RU,1658892791
419,Bethel,41.3712,-73.414,69.67,77,0,0.0,US,1658892791
420,Pacific Grove,36.6177,-121.9166,61.21,87,75,5.75,US,1658892792
421,Faanui,-16.4833,-151.75,78.57,72,23,8.3,PF,1658892792
422,Algiers,36.7525,3.042,71.42,94,20,3.44,DZ,1658892792
423,Pandan,14.0453,124.1694,88.7,62,90,4.56,PH,1658892792
424,Rio Grande,-32.035,-52.0986,60.94,97,35,8.93,BR,1658892605
425,Mapiripán,2.8892,-72.1256,72.79,95,98,2.21,CO,1658892793
426,Broome,42.2506,-75.833,63.01,79,14,2.48,US,1658892794
427,Palana,59.1167,159.9667,53.26,78,94,22.39,RU,1658892794
428,Boké,10.9409,-14.2967,73.85,96,100,1.63,GN,1658892794
429,Yulara,-25.2406,130.9889,62.96,23,0,12.01,AU,1658892795
430,Ucluelet,48.9329,-125.5528,71.1,82,8,1.79,CA,1658892641
431,Aras,42.5617,-2.356,59.41,63,75,4.61,ES,1658892795
432,Tilichiki,60.4667,166.1,50.22,92,100,1.3,RU,1658892795
433,Río Gallegos,-51.6226,-69.2181,17.65,93,0,5.75,AR,1658892565
434,Marsá Maţrūḩ,31.3525,27.2453,77.5,80,0,9.62,EG,1658892795
435,Udachny,66.4167,112.4,82.45,47,5,14.0,RU,1658892796
436,Bellavista,-7.0561,-76.5911,67.87,99,60,1.01,PE,1658892796
437,Altay,47.8667,88.1167,77.58,27,41,4.61,CN,1658892796
438,Paris,48.8534,2.3488,61.38,85,0,5.75,FR,1658892605
439,Codrington,-38.2667,141.9667,56.08,80,100,15.79,AU,1658892797
440,Innisfail,-17.5333,146.0333,74.16,65,14,11.45,AU,1658892797
441,Noyabrsk,63.1994,75.4507,60.53,59,53,15.03,RU,1658892797
442,Charlestown,-32.95,151.6667,64.72,49,7,5.01,AU,1658892701
443,Port Keats,-14.25,129.55,87.73,24,6,9.91,AU,1658892798
444,Petropavlovsk-Kamchatskiy,53.0452,158.6483,68.59,60,75,13.42,RU,1658892798
445,Kupang,-10.1667,123.5833,84.79,50,100,15.01,ID,1658892798
446,San Rafael del Sur,11.8485,-86.4384,74.37,84,74,9.19,NI,1658892799
447,Shache,38.4167,77.2406,97.7,12,23,3.15,CN,1658892799
448,The Valley,18.217,-63.0578,81.82,77,1,18.34,AI,1658892799
449,Puerto Nariño,-3.7703,-70.3831,71.35,98,7,2.17,CO,1658892800
450,Oga,46.4631,10.347,58.8,91,100,2.59,IT,1658892800
451,Griffith,41.5284,-87.4237,74.89,86,100,3.44,US,1658892787
452,Nacozari,25.3366,-108.2574,83.1,75,30,2.35,MX,1658892800
453,Kiryat Gat,31.61,34.7642,74.39,59,0,1.03,IL,1658892801
454,Derazhnya,49.2692,27.4338,63.99,59,98,5.32,UA,1658892801
455,Monteagudo,-19.8167,-63.9833,60.13,90,0,2.08,BO,1658892801
456,Gornopravdinsk,60.05,69.9,65.89,52,27,9.82,RU,1658892801
457,Pauini,-7.7136,-66.9764,72.97,62,23,1.63,BR,1658892802
458,Zyryanka,65.75,150.85,61.5,38,63,13.91,RU,1658892802
459,Itapora,-22.0799,-54.7874,67.87,49,0,6.71,BR,1658892802
460,Beloha,-25.1667,45.05,57.92,89,0,2.24,MG,1658892803
461,Talcahuano,-36.7167,-73.1167,53.28,100,75,10.36,CL,1658892736
462,Samarai,-10.6167,150.6667,79.9,81,57,10.92,PG,1658892803
463,Sibolga,1.7427,98.7792,83.62,66,90,3.89,ID,1658892803
464,Manaus,-3.1019,-60.025,84.69,70,40,3.44,BR,1658892803
465,Bowral,-34.4667,150.4167,56.14,49,3,9.73,AU,1658892640
466,Kenai,60.5544,-151.2583,63.03,63,0,11.5,US,1658892797
467,Quelimane,-17.8786,36.8883,60.75,94,0,0.0,MZ,1658892804
468,Kaluzhskaya Oblast’,54.5,35.5,66.52,85,4,0.94,RU,1658892804
469,Richards Bay,-28.783,32.0377,54.14,73,0,7.31,ZA,1658892799
470,Östersund,63.1792,14.6357,50.61,93,100,25.32,SE,1658892675
471,Manaure,11.7751,-72.4445,79.77,75,2,8.55,CO,1658892805
472,Laas,46.6166,10.7002,65.28,91,100,1.86,IT,1658892805
473,Husavik,66.0449,-17.3389,53.02,80,100,6.73,IS,1658892806
474,Arua,3.0201,30.9111,61.2,94,100,5.39,UG,1658892806
475,Salta,-24.7859,-65.4117,66.79,80,75,5.75,AR,1658892806
476,Dobroye,52.8678,39.8109,69.8,82,27,3.62,RU,1658892807
477,Berlevåg,70.8578,29.0864,60.6,100,100,4.61,NO,1658892807
478,Tabou,4.423,-7.3528,74.84,84,98,8.5,CI,1658892807
479,Kathmandu,27.7167,85.3167,73.62,83,75,0.0,NP,1658892671
480,Nyurba,63.2842,118.3319,88.88,48,6,8.37,RU,1658892807
481,Vladimir,56.1366,40.3966,69.1,80,18,3.02,RU,1658892808
482,Ajdabiya,30.7554,20.2263,75.67,76,0,5.41,LY,1658892808
483,Bobo-Dioulasso,11.1771,-4.2979,71.47,91,100,9.78,BF,1658892808
484,Praia da Vitória,38.7333,-27.0667,71.76,100,0,6.06,PT,1658892740
485,Mogadishu,2.0371,45.3438,76.87,78,40,18.41,SO,1658892809
486,Shenjiamen,29.9576,122.298,82.4,80,1,14.74,CN,1658892809
487,Forbes,-33.3833,148.0167,53.92,64,68,15.32,AU,1658892809
488,Kieta,-6.2167,155.6333,83.71,71,37,4.52,PG,1658892810
489,Sungai Raya,0.7,108.9,84.4,71,99,4.94,ID,1658892810
490,Örnsköldsvik,63.2909,18.7153,56.35,94,100,6.91,SE,1658892810
491,Mayo,38.8876,-76.5119,75.15,90,100,0.0,US,1658892811
492,Sonqor,34.7837,47.6004,75.34,33,0,3.11,IR,1658892811
493,Ketchikan,55.3422,-131.6461,72.07,68,0,14.97,US,1658892811
494,Dvinskoy Bereznik,62.8551,42.7072,66.18,67,20,7.07,RU,1658892811
495,Hamilton,39.1834,-84.5333,73.4,92,0,0.0,US,1658892604
496,Bonavista,48.6499,-53.1147,61.05,92,15,15.21,CA,1658892812
497,Dezful,32.3811,48.4058,96.15,8,69,4.94,IR,1658892812
498,Erenhot,43.6475,111.9767,82.81,23,80,9.13,CN,1658892812
499,Khani,41.9563,42.9566,60.37,97,98,0.18,GE,1658892813
500,Bagdarin,54.4333,113.6,64.96,95,96,13.04,RU,1658892813
501,Aklavik,68.2191,-135.0107,62.51,35,100,21.16,CA,1658892813
502,Mount Gambier,-37.8333,140.7667,57.83,70,100,12.64,AU,1658892813
503,Uetze,52.4651,10.2047,55.99,84,84,5.95,DE,1658892814
504,Puerto Ayacucho,5.6639,-67.6236,74.75,89,86,2.21,VE,1658892814
505,Noumea,-22.2763,166.4572,80.58,99,0,6.93,NC,1658892814
506,Limbang,4.75,115.0,84.31,53,100,2.73,MY,1658892814
507,Manicoré,-5.8092,-61.3003,73.35,94,0,0.0,BR,1658892815
508,Pisco,-13.7,-76.2167,60.85,88,100,2.3,PE,1658892815
509,Nchelenge,-9.3451,28.734,59.79,64,66,7.78,ZM,1658892815
510,Dhārchula,29.85,80.5333,74.03,93,100,0.67,IN,1658892816
511,Wonthaggi,-38.6044,145.5913,56.82,89,93,13.94,AU,1658892816
512,Vanavara,60.34,102.2797,56.93,97,100,8.48,RU,1658892816
513,Qui Nhon,13.7667,109.2333,87.53,62,25,8.3,VN,1658892817
514,Cukai,4.25,103.4167,87.75,68,88,7.34,MY,1658892817
515,Araouane,18.9048,-3.5265,93.76,11,85,7.78,ML,1658892751
516,Köthen,51.75,11.9667,60.22,68,87,6.15,DE,1658892817
517,Bandarbeyla,9.4942,50.8122,79.86,63,10,26.19,SO,1658892818
518,Along,28.1667,94.7667,85.26,72,97,2.24,IN,1658892818
519,General Roca,-39.0333,-67.5833,40.62,92,100,8.88,AR,1658892818
520,Bose,45.4612,8.0137,69.73,90,8,3.83,IT,1658892818
521,Isaka,-3.9,32.9333,61.47,62,81,5.06,TZ,1658892819
522,Tegul'det,57.3064,88.1667,70.52,55,88,1.57,RU,1658892819
523,Puerto Escondido,15.85,-97.0667,77.25,87,100,4.81,MX,1658892819
524,Grand-Lahou,5.1367,-5.0242,74.79,88,100,11.21,CI,1658892820
525,Sinnamary,5.3833,-52.95,78.24,82,25,4.23,GF,1658892820
526,Hirara,24.8,125.2833,91.67,62,20,13.8,JP,1658892820
527,Jiayuguan City,39.8167,98.3,86.18,9,1,10.67,CN,1658892821
528,Gambēla,8.25,34.5833,69.76,97,97,2.39,ET,1658892821
529,Namtsy,62.7161,129.6658,87.58,35,41,1.36,RU,1658892821
530,Yorosso,12.3536,-4.7761,72.63,89,69,10.56,ML,1658892821
531,Uvat,59.1433,68.8953,65.26,57,77,10.16,RU,1658892822
532,Tomball,30.0972,-95.6161,86.83,66,50,3.0,US,1658892614
533,Copiapó,-27.3667,-70.3333,49.69,69,13,0.74,CL,1658892822
534,Alofi,-19.0595,-169.9187,76.89,65,75,12.66,NU,1658892822
535,Rurrenabaque,-14.4413,-67.5278,73.15,85,90,2.26,BO,1658892823
536,Neuquén,-38.9516,-68.0591,46.29,100,100,0.0,AR,1658892823
537,Palian,6.3739,124.9106,85.84,69,84,1.39,PH,1658892823
538,Tallahassee,30.4383,-84.2807,77.68,91,75,4.61,US,1658892687
539,Hudson Bay,52.85,-102.3842,55.22,85,48,7.87,CA,1658892824
540,Soyo,-6.1349,12.3689,68.65,92,78,3.96,AO,1658892824
541,Pevek,69.7008,170.3133,35.91,83,100,11.14,RU,1658892824
542,Xuanzhou,30.9525,118.7553,93.99,60,4,2.66,CN,1658892824
543,Khandyga,62.6667,135.6,82.4,45,33,3.87,RU,1658892825
544,São Miguel do Iguaçu,-25.3481,-54.2378,65.64,73,3,4.07,BR,1658892825
545,Prince Rupert,54.3161,-130.3201,71.29,88,0,13.8,CA,1658892641
546,Osmeña,10.5208,119.9258,84.99,72,79,14.83,PH,1658892825
547,Bairiki Village,1.3292,172.9752,86.0,70,40,11.5,KI,1658892826
548,Lima,-12.0432,-77.0282,59.25,82,100,12.66,PE,1658892623
549,Basco,20.4487,121.9702,85.69,71,33,6.53,PH,1658892826
550,Vila Velha,-20.3297,-40.2925,67.95,94,40,2.3,BR,1658892813
551,Porto Santo,33.072,-16.3415,70.18,83,40,13.8,PT,1658892826
552,Melhus,63.2855,10.2781,51.46,93,100,11.68,NO,1658892827
553,Qasigiannguit,68.8193,-51.1922,43.05,98,100,2.77,GL,1658892827
554,Bilma,18.6853,12.9164,85.86,13,43,4.52,NE,1658892827
555,Ust-Tsilma,65.441,52.1498,66.18,43,86,6.06,RU,1658892828
556,Henties Bay,-22.116,14.2845,52.39,84,20,4.81,NA,1658892828
557,Severodvinsk,64.5635,39.8302,64.51,79,86,10.89,RU,1658892828
